# 
# Header Description:
# 
# Version: v2.0.0.1 Platform: 8.1.0 Manufacturer: asus Model: ASUS_X00HD
# 
# Raw,ElapsedRealtimeMillis,TimeNanos,LeapSecond,TimeUncertaintyNanos,FullBiasNanos,BiasNanos,BiasUncertaintyNanos,DriftNanosPerSecond,DriftUncertaintyNanosPerSecond,HardwareClockDiscontinuityCount,Svid,TimeOffsetNanos,State,ReceivedSvTimeNanos,ReceivedSvTimeUncertaintyNanos,Cn0DbHz,PseudorangeRateMetersPerSecond,PseudorangeRateUncertaintyMetersPerSecond,AccumulatedDeltaRangeState,AccumulatedDeltaRangeMeters,AccumulatedDeltaRangeUncertaintyMeters,CarrierFrequencyHz,CarrierCycles,CarrierPhase,CarrierPhaseUncertainty,MultipathIndicator,SnrInDb,ConstellationType,AgcDb,CarrierFrequencyHz
# 
# Fix,Provider,Latitude,Longitude,Altitude,Speed,Accuracy,(UTC)TimeInMs
# 
# Nav,Svid,Type,Status,MessageId,Sub-messageId,Data(Bytes)
# 
Fix,gps,45.064944,7.657451,305.792847,0.170000,6.432000,1774433578000
NMEA,$GPGSV,3,1,11,05,19,066,18,16,21,300,18,18,57,165,23,21,09,039,14*7C
,1774433578412
NMEA,$GPGSV,3,2,11,25,28,120,22,26,55,300,29,28,43,216,20,29,52,056,21*7C
,1774433578412
NMEA,$GPGSV,3,3,11,31,50,258,25,04,04,312,,27,01,255,*40
,1774433578413
NMEA,$GLGSV,3,1,09,82,71,036,20,73,45,320,23,80,73,130,25,79,17,137,21*67
,1774433578413
NMEA,$GLGSV,3,2,09,83,48,212,16,81,22,036,21,74,00,000,,65,04,012,*64
,1774433578413
NMEA,$GLGSV,3,3,09,72,03,326,*5D
,1774433578414
NMEA,$GAGSV,1,1,0,*74
,1774433578414
NMEA,$PQGSV,1,1,0,*73
,1774433578415
NMEA,$PQGSV,3,1,09,08,23,067,17,11,23,224,15,12,78,209,20,24,64,175,27,0,4*68
,1774433578415
NMEA,$PQGSV,3,2,09,25,44,302,24,26,20,149,23,02,00,000,,05,16,119,,0,4*61
,1774433578416
NMEA,$PQGSV,3,3,09,23,00,000,,0,4*53
,1774433578416
NMEA,$GNGSA,A,3,18,25,26,28,29,31,,,,,,,1.6,1.3,1.0,1*3C
,1774433578418
NMEA,$GNGSA,A,2,80,82,,,,,,,,,,,1.6,1.3,1.0,2*35
,1774433578418
NMEA,$PQGSA,A,2,24,,,,,,,,,,,,1.6,1.3,1.0,4*3F
,1774433578419
NMEA,$GNVTG,182.7,T,182.7,M,0.3,N,0.6,K,A*38
,1774433578419
NMEA,$GNRMC,101258.00,A,4503.896662,N,00739.447083,E,0.3,182.7,250326,0.3,W,A*3C
,1774433578419
NMEA,$GNGGA,101258.00,4503.896662,N,00739.447083,E,1,09,1.3,257.8,M,48.0,M,,*74
,1774433578420
Fix,gps,45.064935,7.657446,307.010254,0.170000,7.504000,1774433579000
NMEA,$GPGSV,3,1,11,05,19,066,18,16,21,300,18,18,57,165,22,21,09,039,14*7D
,1774433579411
NMEA,$GPGSV,3,2,11,25,28,120,20,26,55,300,27,28,43,216,19,29,52,056,19*71
,1774433579412
NMEA,$GPGSV,3,3,11,31,50,258,21,04,04,312,,27,01,255,*44
,1774433579414
NMEA,$GLGSV,3,1,09,82,71,036,18,73,45,320,22,80,73,130,22,79,17,137,21*6A
,1774433579414
NMEA,$GLGSV,3,2,09,83,48,212,16,81,22,036,21,74,00,000,,65,04,012,*64
,1774433579415
NMEA,$GLGSV,3,3,09,72,03,326,*5D
,1774433579418
NMEA,$GAGSV,1,1,0,*74
,1774433579418
NMEA,$PQGSV,1,1,0,*73
,1774433579418
NMEA,$PQGSV,3,1,09,08,23,067,17,11,23,224,15,12,78,209,20,24,64,175,26,0,4*69
,1774433579418
NMEA,$PQGSV,3,2,09,25,44,302,24,26,20,149,23,02,00,000,,05,16,119,,0,4*61
,1774433579422
NMEA,$PQGSV,3,3,09,23,00,000,,0,4*53
,1774433579423
NMEA,$GNGSA,A,3,18,25,26,28,29,31,,,,,,,1.6,1.3,1.0,1*3C
,1774433579427
NMEA,$GNGSA,A,2,80,82,,,,,,,,,,,1.6,1.3,1.0,2*35
,1774433579427
NMEA,$PQGSA,A,2,24,,,,,,,,,,,,1.6,1.3,1.0,4*3F
,1774433579428
NMEA,$GNVTG,182.8,T,182.8,M,0.3,N,0.6,K,A*38
,1774433579428
NMEA,$GNRMC,101259.00,A,4503.896095,N,00739.446787,E,0.3,182.8,250326,0.3,W,A*3E
,1774433579428
NMEA,$GNGGA,101259.00,4503.896095,N,00739.446787,E,1,09,1.3,259.0,M,48.0,M,,*7F
,1774433579428
Fix,gps,45.064940,7.657468,308.082825,0.000000,6.432000,1774433580000
NMEA,$GPGSV,3,1,11,05,19,066,14,16,21,300,18,18,57,165,22,21,09,039,14*71
,1774433580412
NMEA,$GPGSV,3,2,11,25,28,120,20,26,55,300,27,28,43,216,20,29,52,056,21*70
,1774433580412
NMEA,$GPGSV,3,3,11,31,50,258,23,04,04,312,,27,01,255,*46
,1774433580412
NMEA,$GLGSV,3,1,09,82,71,036,18,73,45,320,21,80,73,130,25,79,17,137,21*6E
,1774433580412
NMEA,$GLGSV,3,2,09,83,48,212,19,81,22,036,14,74,00,000,,65,04,012,*6D
,1774433580413
NMEA,$GLGSV,3,3,09,72,03,326,*5D
,1774433580413
NMEA,$GAGSV,1,1,0,*74
,1774433580413
NMEA,$PQGSV,1,1,0,*73
,1774433580414
NMEA,$PQGSV,3,1,09,08,23,067,17,11,23,224,15,12,78,209,22,24,64,175,26,0,4*6B
,1774433580416
NMEA,$PQGSV,3,2,09,25,44,302,23,26,20,149,14,02,00,000,,05,16,119,,0,4*62
,1774433580416
NMEA,$PQGSV,3,3,09,23,00,000,,0,4*53
,1774433580416
NMEA,$GNGSA,A,3,18,25,26,28,29,31,,,,,,,1.6,1.3,1.0,1*3C
,1774433580418
NMEA,$GNGSA,A,2,80,82,,,,,,,,,,,1.6,1.3,1.0,2*35
,1774433580419
NMEA,$PQGSA,A,2,24,,,,,,,,,,,,1.6,1.3,1.0,4*3F
,1774433580419
NMEA,$GNVTG,,T,,M,0.0,N,0.0,K,A*3D
,1774433580419
NMEA,$GNRMC,101300.00,A,4503.896371,N,00739.448085,E,0.0,,250326,0.3,W,A*1F
,1774433580420
NMEA,$GNGGA,101300.00,4503.896371,N,00739.448085,E,1,09,1.3,260.1,M,48.0,M,,*7B
,1774433580420
Fix,gps,45.064943,7.657485,309.162048,0.270000,6.432000,1774433581000
NMEA,$GPGSV,3,1,11,05,19,066,17,16,21,300,18,18,57,165,23,21,09,039,14*73
,1774433581413
NMEA,$GPGSV,3,2,11,25,28,120,21,26,55,300,28,28,43,216,19,29,52,056,21*74
,1774433581413
NMEA,$GPGSV,3,3,11,31,50,258,23,04,04,312,,27,01,255,*46
,1774433581414
NMEA,$GLGSV,3,1,09,82,71,036,18,73,45,320,21,80,73,130,25,79,17,137,21*6E
,1774433581414
NMEA,$GLGSV,3,2,09,83,48,212,19,81,22,036,14,74,00,000,,65,04,012,*6D
,1774433581414
NMEA,$GLGSV,3,3,09,72,03,326,*5D
,1774433581414
NMEA,$GAGSV,1,1,0,*74
,1774433581414
NMEA,$PQGSV,1,1,0,*73
,1774433581415
NMEA,$PQGSV,3,1,09,08,23,067,18,11,23,224,15,12,78,209,19,24,64,175,26,0,4*6C
,1774433581415
NMEA,$PQGSV,3,2,09,25,44,302,22,26,20,149,18,02,00,000,,05,16,119,,0,4*6F
,1774433581415
NMEA,$PQGSV,3,3,09,23,00,000,,0,4*53
,1774433581416
NMEA,$GNGSA,A,3,18,25,26,28,29,31,,,,,,,1.6,1.3,1.0,1*3C
,1774433581417
NMEA,$GNGSA,A,2,80,82,,,,,,,,,,,1.6,1.3,1.0,2*35
,1774433581418
NMEA,$PQGSA,A,2,24,,,,,,,,,,,,1.6,1.3,1.0,4*3F
,1774433581418
NMEA,$GNVTG,61.3,T,61.3,M,0.5,N,1.0,K,A*39
,1774433581419
NMEA,$GNRMC,101301.00,A,4503.896590,N,00739.449089,E,0.5,61.3,250326,0.3,W,A*05
,1774433581419
NMEA,$GNGGA,101301.00,4503.896590,N,00739.449089,E,1,09,1.3,261.2,M,48.0,M,,*7C
,1774433581419
NMEA,$GPGSV,3,1,11,05,19,066,19,16,21,300,18,18,57,165,23,21,09,039,14*7D
,1774433582413
Fix,gps,45.064951,7.657494,308.802368,0.430000,7.504000,1774433582000
NMEA,$GPGSV,3,2,11,25,28,120,21,26,55,300,28,28,43,216,20,29,52,056,21*7E
,1774433582413
NMEA,$GPGSV,3,3,11,31,50,258,23,04,04,312,,27,01,255,*46
,1774433582413
NMEA,$GLGSV,3,1,09,82,71,036,20,73,45,320,22,80,73,130,25,79,17,137,21*66
,1774433582414
NMEA,$GLGSV,3,2,09,83,48,212,21,81,22,036,14,74,00,000,,65,04,012,*66
,1774433582414
NMEA,$GLGSV,3,3,09,72,03,326,*5D
,1774433582414
NMEA,$GAGSV,1,1,0,*74
,1774433582414
NMEA,$PQGSV,1,1,0,*73
,1774433582417
NMEA,$PQGSV,3,1,09,08,23,067,18,11,23,224,14,12,78,209,21,24,64,175,26,0,4*66
,1774433582417
NMEA,$PQGSV,3,2,09,25,44,302,22,26,20,149,18,02,00,000,,05,16,119,,0,4*6F
,1774433582417
NMEA,$PQGSV,3,3,09,23,00,000,,0,4*53
,1774433582417
NMEA,$GNGSA,A,3,18,25,26,28,29,31,,,,,,,1.6,1.3,1.0,1*3C
,1774433582419
NMEA,$GNGSA,A,2,80,82,,,,,,,,,,,1.6,1.3,1.0,2*35
,1774433582421
NMEA,$PQGSA,A,2,24,,,,,,,,,,,,1.6,1.3,1.0,4*3F
,1774433582421
NMEA,$GNVTG,36.5,T,36.5,M,0.8,N,1.5,K,A*31
,1774433582421
NMEA,$GNRMC,101302.00,A,4503.897065,N,00739.449646,E,0.8,36.5,250326,0.3,W,A*04
,1774433582423
NMEA,$GNGGA,101302.00,4503.897065,N,00739.449646,E,1,09,1.3,260.8,M,48.0,M,,*7F
,1774433582423
Fix,gps,45.064954,7.657502,311.025269,0.200000,7.504000,1774433583000
NMEA,$GPGSV,3,1,11,05,19,066,21,16,21,300,19,18,57,165,23,21,09,039,14*77
,1774433583411
NMEA,$GPGSV,3,2,11,25,28,120,20,26,55,300,27,28,43,216,20,29,52,056,24*75
,1774433583412
NMEA,$GPGSV,3,3,11,31,50,258,25,04,04,312,,27,01,255,*40
,1774433583419
NMEA,$GLGSV,3,1,09,82,71,036,19,73,45,320,24,80,73,130,24,79,17,137,21*6B
,1774433583421
NMEA,$GLGSV,3,2,09,83,48,212,21,81,22,036,14,74,00,000,,65,04,012,*66
,1774433583421
NMEA,$GLGSV,3,3,09,72,03,326,*5D
,1774433583421
NMEA,$GAGSV,1,1,0,*74
,1774433583421
NMEA,$PQGSV,1,1,0,*73
,1774433583421
NMEA,$PQGSV,3,1,09,08,23,067,19,11,23,224,14,12,78,209,22,24,64,175,26,0,4*64
,1774433583422
NMEA,$PQGSV,3,2,09,25,44,302,24,26,20,149,18,02,00,000,,05,16,119,,0,4*69
,1774433583422
NMEA,$PQGSV,3,3,09,23,00,000,,0,4*53
,1774433583422
NMEA,$GNGSA,A,3,18,25,26,28,29,31,,,,,,,1.6,1.3,1.0,1*3C
,1774433583424
NMEA,$GNGSA,A,2,80,82,,,,,,,,,,,1.6,1.3,1.0,2*35
,1774433583424
NMEA,$PQGSA,A,2,24,,,,,,,,,,,,1.6,1.3,1.0,4*3F
,1774433583425
NMEA,$GNVTG,50.2,T,50.2,M,0.4,N,0.7,K,A*3E
,1774433583429
NMEA,$GNRMC,101303.00,A,4503.897252,N,00739.450136,E,0.4,50.2,250326,0.3,W,A*00
,1774433583429
NMEA,$GNGGA,101303.00,4503.897252,N,00739.450136,E,1,09,1.3,263.0,M,48.0,M,,*7B
,1774433583429
Fix,gps,45.064957,7.657507,310.525391,0.160000,7.504000,1774433584000
NMEA,$GPGSV,3,1,11,05,19,066,22,16,21,300,18,18,57,165,24,21,09,039,14*72
,1774433584411
NMEA,$GPGSV,3,2,11,25,28,120,20,26,55,300,25,28,43,216,21,29,52,056,27*75
,1774433584412
NMEA,$GPGSV,3,3,11,31,50,258,26,04,04,312,,27,01,255,*43
,1774433584414
NMEA,$GLGSV,3,1,09,82,71,036,23,73,45,320,27,80,73,130,25,79,17,137,21*60
,1774433584415
NMEA,$GLGSV,3,2,09,83,48,212,21,81,22,036,16,74,00,000,,65,04,012,*64
,1774433584416
NMEA,$GLGSV,3,3,09,72,03,326,*5D
,1774433584418
NMEA,$GAGSV,1,1,0,*74
,1774433584419
NMEA,$PQGSV,1,1,0,*73
,1774433584420
NMEA,$PQGSV,3,1,09,08,23,067,19,11,23,224,14,12,78,209,22,24,64,175,25,0,4*67
,1774433584420
NMEA,$PQGSV,3,2,09,25,44,302,23,26,20,149,17,02,00,000,,05,16,119,,0,4*61
,1774433584421
NMEA,$PQGSV,3,3,09,23,00,000,,0,4*53
,1774433584422
NMEA,$GNGSA,A,3,18,25,26,28,29,31,,,,,,,1.6,1.3,1.0,1*3C
,1774433584429
NMEA,$GNGSA,A,2,80,82,,,,,,,,,,,1.6,1.3,1.0,2*35
,1774433584429
NMEA,$PQGSA,A,2,24,,,,,,,,,,,,1.6,1.3,1.0,4*3F
,1774433584430
NMEA,$GNVTG,44.5,T,44.5,M,0.3,N,0.6,K,A*38
,1774433584430
NMEA,$GNRMC,101304.00,A,4503.897432,N,00739.450396,E,0.3,44.5,250326,0.3,W,A*0A
,1774433584430
NMEA,$GNGGA,101304.00,4503.897432,N,00739.450396,E,1,09,1.3,262.5,M,48.0,M,,*70
,1774433584430
Fix,gps,45.064960,7.657507,310.137451,0.200000,6.432000,1774433585000
NMEA,$GPGSV,3,1,11,05,19,066,21,16,21,300,18,18,57,165,23,21,09,039,14*76
,1774433585410
NMEA,$GPGSV,3,2,11,25,28,120,20,26,55,300,25,28,43,216,21,29,52,056,27*75
,1774433585411
NMEA,$GPGSV,3,3,11,31,50,258,26,04,04,312,,27,01,255,*43
,1774433585411
NMEA,$GLGSV,3,1,09,82,71,036,23,73,45,320,25,80,73,130,25,79,17,137,21*62
,1774433585412
NMEA,$GLGSV,3,2,09,83,48,212,22,81,22,036,19,74,00,000,,65,04,012,*68
,1774433585412
NMEA,$GLGSV,3,3,09,72,03,326,*5D
,1774433585413
NMEA,$GAGSV,1,1,0,*74
,1774433585413
NMEA,$PQGSV,1,1,0,*73
,1774433585413
NMEA,$PQGSV,3,1,09,08,23,067,17,11,23,224,14,12,78,209,22,24,64,175,25,0,4*69
,1774433585413
NMEA,$PQGSV,3,2,09,25,44,302,23,26,20,149,17,02,00,000,,05,16,119,,0,4*61
,1774433585414
NMEA,$PQGSV,3,3,09,23,00,000,,0,4*53
,1774433585414
NMEA,$GNGSA,A,3,18,25,26,28,29,31,,,,,,,1.6,1.3,1.0,1*3C
,1774433585416
NMEA,$GNGSA,A,2,80,82,,,,,,,,,,,1.6,1.3,1.0,2*35
,1774433585416
NMEA,$PQGSA,A,2,24,,,,,,,,,,,,1.6,1.3,1.0,4*3F
,1774433585416
NMEA,$GNVTG,27.2,T,27.2,M,0.4,N,0.7,K,A*3E
,1774433585416
NMEA,$GNRMC,101305.00,A,4503.897586,N,00739.450394,E,0.4,27.2,250326,0.3,W,A*02
,1774433585417
NMEA,$GNGGA,101305.00,4503.897586,N,00739.450394,E,1,09,1.3,262.1,M,48.0,M,,*79
,1774433585417
Fix,gps,45.064962,7.657505,311.402710,0.150000,6.432000,1774433586000
NMEA,$GPGSV,3,1,11,05,19,066,22,16,21,300,17,18,57,165,23,21,09,039,14*7A
,1774433586411
NMEA,$GPGSV,3,2,11,25,28,120,20,26,55,300,25,28,43,216,21,29,52,056,27*75
,1774433586412
NMEA,$GPGSV,3,3,11,31,50,258,26,04,04,312,,27,01,255,*43
,1774433586413
NMEA,$GLGSV,3,1,09,82,71,036,25,73,45,320,25,80,73,130,25,79,17,137,21*64
,1774433586414
NMEA,$GLGSV,3,2,09,83,48,212,21,81,22,036,19,74,00,000,,65,04,012,*6B
,1774433586414
NMEA,$GLGSV,3,3,09,72,03,326,*5D
,1774433586414
NMEA,$GAGSV,1,1,0,*74
,1774433586415
NMEA,$PQGSV,1,1,0,*73
,1774433586415
NMEA,$PQGSV,3,1,09,08,23,067,17,11,23,224,14,12,78,209,22,24,64,175,24,0,4*68
,1774433586415
NMEA,$PQGSV,3,2,09,25,44,302,23,26,20,149,15,02,00,000,,05,16,119,,0,4*63
,1774433586416
NMEA,$PQGSV,3,3,09,23,00,000,,0,4*53
,1774433586416
NMEA,$GNGSA,A,3,18,25,26,28,29,31,,,,,,,1.6,1.3,1.0,1*3C
,1774433586418
NMEA,$GNGSA,A,2,80,82,,,,,,,,,,,1.6,1.3,1.0,2*35
,1774433586418
NMEA,$PQGSA,A,2,24,,,,,,,,,,,,1.6,1.3,1.0,4*3F
,1774433586419
NMEA,$GNVTG,351.9,T,351.9,M,0.3,N,0.5,K,A*3B
,1774433586419
NMEA,$GNRMC,101306.00,A,4503.897715,N,00739.450319,E,0.3,351.9,250326,0.3,W,A*32
,1774433586419
NMEA,$GNGGA,101306.00,4503.897715,N,00739.450319,E,1,09,1.3,263.4,M,48.0,M,,*73
,1774433586420
Fix,gps,45.064959,7.657498,308.296021,0.000000,7.504000,1774433587000
NMEA,$GPGSV,3,1,11,05,19,066,22,16,21,300,17,18,57,165,23,21,09,039,14*7A
,1774433587411
NMEA,$GPGSV,3,2,11,25,28,120,20,26,55,300,25,28,43,216,21,29,52,056,27*75
,1774433587412
NMEA,$GPGSV,3,3,11,31,50,258,26,04,04,312,,27,01,255,*43
,1774433587414
NMEA,$GLGSV,3,1,09,82,71,036,24,73,45,320,25,80,73,130,24,79,17,137,09*6E
,1774433587415
NMEA,$GLGSV,3,2,09,83,48,212,20,81,22,036,19,74,00,000,,65,04,012,*6A
,1774433587415
NMEA,$GLGSV,3,3,09,72,03,326,*5D
,1774433587416
NMEA,$GAGSV,1,1,0,*74
,1774433587417
NMEA,$PQGSV,1,1,0,*73
,1774433587418
NMEA,$PQGSV,3,1,09,08,23,067,17,11,23,224,14,12,78,209,22,24,64,175,25,0,4*69
,1774433587419
NMEA,$PQGSV,3,2,09,25,44,302,24,26,20,149,15,02,00,000,,05,16,119,,0,4*64
,1774433587419
NMEA,$PQGSV,3,3,09,23,00,000,,0,4*53
,1774433587420
NMEA,$GNGSA,A,3,18,25,26,28,29,31,,,,,,,1.6,1.3,1.0,1*3C
,1774433587422
NMEA,$GNGSA,A,2,80,82,,,,,,,,,,,1.6,1.3,1.0,2*35
,1774433587422
NMEA,$PQGSA,A,2,24,,,,,,,,,,,,1.6,1.3,1.0,4*3F
,1774433587422
NMEA,$GNVTG,,T,,M,0.0,N,0.0,K,A*3D
,1774433587422
NMEA,$GNRMC,101307.00,A,4503.897520,N,00739.449863,E,0.0,,250326,0.3,W,A*1A
,1774433587422
NMEA,$GNGGA,101307.00,4503.897520,N,00739.449863,E,1,09,1.3,260.3,M,48.0,M,,*7C
,1774433587423
Fix,gps,45.064958,7.657491,307.646851,0.000000,6.432000,1774433588000
NMEA,$GPGSV,3,1,11,05,19,066,23,16,21,300,16,18,57,165,22,21,09,039,14*7B
,1774433588413
NMEA,$GPGSV,3,2,11,25,28,120,19,26,55,300,25,28,43,216,21,29,52,056,27*7F
,1774433588413
NMEA,$GPGSV,3,3,11,31,50,258,25,04,04,312,,27,01,255,*40
,1774433588413
NMEA,$GLGSV,3,1,09,82,71,036,25,73,45,320,25,80,73,130,25,79,17,137,09*6E
,1774433588413
NMEA,$GLGSV,3,2,09,83,48,212,21,81,22,036,18,74,00,000,,65,04,012,*6A
,1774433588415
NMEA,$GLGSV,3,3,09,72,03,326,*5D
,1774433588415
NMEA,$GAGSV,1,1,0,*74
,1774433588416
NMEA,$PQGSV,1,1,0,*73
,1774433588418
NMEA,$PQGSV,3,1,09,08,23,067,18,11,23,224,14,12,78,209,22,24,64,175,25,0,4*66
,1774433588419
NMEA,$PQGSV,3,2,09,25,44,302,23,26,20,149,16,02,00,000,,05,16,119,,0,4*60
,1774433588419
NMEA,$PQGSV,3,3,09,23,00,000,,0,4*53
,1774433588419
NMEA,$GNGSA,A,3,18,25,26,28,29,31,,,,,,,1.6,1.3,1.0,1*3C
,1774433588421
NMEA,$GNGSA,A,2,80,82,,,,,,,,,,,1.6,1.3,1.0,2*35
,1774433588421
NMEA,$PQGSA,A,2,24,,,,,,,,,,,,1.6,1.3,1.0,4*3F
,1774433588421
NMEA,$GNVTG,,T,,M,0.0,N,0.0,K,A*3D
,1774433588421
NMEA,$GNRMC,101308.00,A,4503.897458,N,00739.449431,E,0.0,,250326,0.3,W,A*10
,1774433588422
NMEA,$GNGGA,101308.00,4503.897458,N,00739.449431,E,1,09,1.3,259.6,M,48.0,M,,*79
,1774433588422
Fix,gps,45.064956,7.657486,307.625244,0.000000,6.432000,1774433589000
NMEA,$GPGSV,3,1,11,05,19,066,23,16,21,300,17,18,57,165,23,25,28,120,21*73
,1774433589410
NMEA,$GPGSV,3,2,11,26,55,300,25,28,43,216,21,29,52,056,26,31,50,258,25*77
,1774433589410
NMEA,$GPGSV,3,3,11,04,04,312,,21,09,039,,27,01,255,*4F
,1774433589411
NMEA,$GLGSV,3,1,09,82,71,036,25,73,45,320,26,80,73,130,25,79,17,137,09*6D
,1774433589411
NMEA,$GLGSV,3,2,09,83,48,212,21,81,22,036,21,74,00,000,,65,04,012,*60
,1774433589412
NMEA,$GLGSV,3,3,09,72,03,326,*5D
,1774433589412
NMEA,$GAGSV,1,1,0,*74
,1774433589412
NMEA,$PQGSV,1,1,0,*73
,1774433589413
NMEA,$PQGSV,3,1,09,08,23,067,19,11,23,224,14,12,78,209,22,24,64,175,25,0,4*67
,1774433589413
NMEA,$PQGSV,3,2,09,25,44,302,24,26,20,149,16,02,00,000,,05,16,119,,0,4*67
,1774433589413
NMEA,$PQGSV,3,3,09,23,00,000,,0,4*53
,1774433589413
NMEA,$GNGSA,A,3,18,25,26,28,29,31,,,,,,,1.6,1.3,1.0,1*3C
,1774433589415
NMEA,$GNGSA,A,2,80,82,,,,,,,,,,,1.6,1.3,1.0,2*35
,1774433589415
NMEA,$PQGSA,A,2,24,,,,,,,,,,,,1.6,1.3,1.0,4*3F
,1774433589415
NMEA,$GNVTG,,T,,M,0.0,N,0.0,K,A*3D
,1774433589416
NMEA,$GNRMC,101309.00,A,4503.897347,N,00739.449176,E,0.0,,250326,0.3,W,A*1E
,1774433589416
NMEA,$GNGGA,101309.00,4503.897347,N,00739.449176,E,1,09,1.3,259.6,M,48.0,M,,*77
,1774433589416
Fix,gps,45.064955,7.657484,307.589600,0.000000,5.360000,1774433590000
NMEA,$GPGSV,3,1,11,05,19,066,23,16,21,300,17,18,57,165,23,25,28,120,19*78
,1774433590411
NMEA,$GPGSV,3,2,11,26,55,300,26,28,43,216,21,29,52,056,27,31,50,258,25*75
,1774433590411
NMEA,$GPGSV,3,3,11,04,04,312,,21,09,039,,27,01,255,*4F
,1774433590412
NMEA,$GLGSV,3,1,09,82,71,036,24,73,45,320,25,80,73,130,24,79,17,137,09*6E
,1774433590413
NMEA,$GLGSV,3,2,09,83,48,212,20,81,22,036,21,74,00,000,,65,04,012,*61
,1774433590413
NMEA,$GLGSV,3,3,09,72,03,326,*5D
,1774433590413
NMEA,$GAGSV,1,1,0,*74
,1774433590413
NMEA,$PQGSV,1,1,0,*73
,1774433590414
NMEA,$PQGSV,3,1,09,08,23,067,19,11,23,224,14,12,78,209,22,24,64,175,25,0,4*67
,1774433590414
NMEA,$PQGSV,3,2,09,25,44,302,23,26,20,149,17,02,00,000,,05,16,119,,0,4*61
,1774433590414
NMEA,$PQGSV,3,3,09,23,00,000,,0,4*53
,1774433590414
NMEA,$GNGSA,A,3,18,25,26,28,29,31,,,,,,,1.6,1.3,1.0,1*3C
,1774433590417
NMEA,$GNGSA,A,2,80,82,,,,,,,,,,,1.6,1.3,1.0,2*35
,1774433590417
NMEA,$PQGSA,A,2,24,,,,,,,,,,,,1.6,1.3,1.0,4*3F
,1774433590418
NMEA,$GNVTG,,T,,M,0.0,N,0.0,K,A*3D
,1774433590418
NMEA,$GNRMC,101310.00,A,4503.897311,N,00739.449026,E,0.0,,250326,0.3,W,A*11
,1774433590418
NMEA,$GNGGA,101310.00,4503.897311,N,00739.449026,E,1,09,1.3,259.6,M,48.0,M,,*78
,1774433590418
Fix,gps,45.064955,7.657483,307.905029,0.000000,5.360000,1774433591000
NMEA,$GPGSV,3,1,11,05,19,066,25,16,21,300,16,18,57,165,23,25,28,120,20*75
,1774433591409
NMEA,$GPGSV,3,2,11,26,55,300,25,28,43,216,22,29,52,056,27,31,50,258,25*75
,1774433591410
NMEA,$GPGSV,3,3,11,04,04,312,,21,09,039,,27,01,255,*4F
,1774433591411
NMEA,$GLGSV,3,1,09,82,71,036,25,73,45,320,25,80,73,130,25,79,17,137,09*6E
,1774433591411
NMEA,$GLGSV,3,2,09,83,48,212,22,81,22,036,23,74,00,000,,65,04,012,*61
,1774433591412
NMEA,$GLGSV,3,3,09,72,03,326,*5D
,1774433591413
NMEA,$GAGSV,1,1,0,*74
,1774433591414
NMEA,$PQGSV,1,1,0,*73
,1774433591414
NMEA,$PQGSV,3,1,09,08,23,067,19,11,23,224,14,12,78,209,22,24,64,175,25,0,4*67
,1774433591414
NMEA,$PQGSV,3,2,09,25,44,302,22,26,20,149,17,02,00,000,,05,16,119,,0,4*60
,1774433591414
NMEA,$PQGSV,3,3,09,23,00,000,,0,4*53
,1774433591414
NMEA,$GNGSA,A,3,18,25,26,28,29,31,,,,,,,1.6,1.3,1.0,1*3C
,1774433591417
NMEA,$GNGSA,A,2,80,82,,,,,,,,,,,1.6,1.3,1.0,2*35
,1774433591417
NMEA,$PQGSA,A,2,24,,,,,,,,,,,,1.6,1.3,1.0,4*3F
,1774433591418
NMEA,$GNVTG,,T,,M,0.0,N,0.0,K,A*3D
,1774433591418
NMEA,$GNRMC,101311.00,A,4503.897282,N,00739.448996,E,0.0,,250326,0.3,W,A*18
,1774433591418
NMEA,$GNGGA,101311.00,4503.897282,N,00739.448996,E,1,09,1.3,259.9,M,48.0,M,,*7E
,1774433591419
Fix,gps,45.064952,7.657482,307.915833,0.000000,5.360000,1774433592000
NMEA,$GPGSV,3,1,11,05,19,066,25,16,21,300,17,18,57,165,23,25,28,120,20*74
,1774433592411
NMEA,$GPGSV,3,2,11,26,55,300,24,28,43,216,21,29,52,056,27,31,50,258,25*77
,1774433592412
NMEA,$GPGSV,3,3,11,04,04,312,,21,09,039,,27,01,255,*4F
,1774433592413
NMEA,$GLGSV,3,1,09,82,71,036,25,73,45,320,25,80,73,130,24,79,17,137,09*6F
,1774433592413
NMEA,$GLGSV,3,2,09,83,48,212,22,81,22,036,20,74,00,000,,65,04,012,*62
,1774433592414
NMEA,$GLGSV,3,3,09,72,03,326,*5D
,1774433592414
NMEA,$GAGSV,1,1,0,*74
,1774433592415
NMEA,$PQGSV,1,1,0,*73
,1774433592415
NMEA,$PQGSV,3,1,09,08,23,067,20,11,23,224,14,12,78,209,22,24,64,175,25,0,4*6D
,1774433592415
NMEA,$PQGSV,3,2,09,25,44,302,23,26,20,149,16,02,00,000,,05,16,119,,0,4*60
,1774433592415
NMEA,$PQGSV,3,3,09,23,00,000,,0,4*53
,1774433592416
NMEA,$GNGSA,A,3,18,25,26,28,29,31,,,,,,,1.6,1.3,1.0,1*3C
,1774433592417
NMEA,$GNGSA,A,2,80,82,,,,,,,,,,,1.6,1.3,1.0,2*35
,1774433592418
NMEA,$PQGSA,A,2,24,,,,,,,,,,,,1.6,1.3,1.0,4*3F
,1774433592418
NMEA,$GNVTG,,T,,M,0.0,N,0.0,K,A*3D
,1774433592418
NMEA,$GNRMC,101312.00,A,4503.897142,N,00739.448903,E,0.0,,250326,0.3,W,A*18
,1774433592418
NMEA,$GNGGA,101312.00,4503.897142,N,00739.448903,E,1,09,1.3,259.9,M,48.0,M,,*7E
,1774433592418
Fix,gps,45.064951,7.657480,308.248169,0.000000,5.360000,1774433593000
NMEA,$GPGSV,3,1,11,05,19,066,24,16,21,300,17,18,57,165,23,25,28,120,20*75
,1774433593411
NMEA,$GPGSV,3,2,11,26,55,300,25,28,43,216,21,29,52,056,27,31,50,258,26*75
,1774433593412
NMEA,$GPGSV,3,3,11,04,04,312,,21,09,039,,27,01,255,*4F
,1774433593413
NMEA,$GLGSV,3,1,09,82,71,036,25,73,45,320,25,80,73,130,25,79,17,137,09*6E
,1774433593413
NMEA,$GLGSV,3,2,09,83,48,212,22,81,22,036,21,74,00,000,,65,04,012,*63
,1774433593414
NMEA,$GLGSV,3,3,09,72,03,326,*5D
,1774433593414
NMEA,$GAGSV,1,1,0,*74
,1774433593414
NMEA,$PQGSV,1,1,0,*73
,1774433593414
NMEA,$PQGSV,3,1,09,08,23,067,19,11,23,224,14,12,78,209,22,24,64,175,25,0,4*67
,1774433593415
NMEA,$PQGSV,3,2,09,25,44,302,23,26,20,149,16,02,00,000,,05,16,119,,0,4*60
,1774433593415
NMEA,$PQGSV,3,3,09,23,00,000,,0,4*53
,1774433593416
NMEA,$GNGSA,A,3,18,25,26,28,29,31,,,,,,,1.6,1.3,1.0,1*3C
,1774433593417
NMEA,$GNGSA,A,2,80,82,,,,,,,,,,,1.6,1.3,1.0,2*35
,1774433593418
NMEA,$PQGSA,A,2,24,,,,,,,,,,,,1.6,1.3,1.0,4*3F
,1774433593418
NMEA,$GNVTG,,T,,M,0.0,N,0.0,K,A*3D
,1774433593419
NMEA,$GNRMC,101313.00,A,4503.897077,N,00739.448816,E,0.0,,250326,0.3,W,A*1B
,1774433593419
NMEA,$GNGGA,101313.00,4503.897077,N,00739.448816,E,1,09,1.3,260.2,M,48.0,M,,*7C
,1774433593419
Fix,gps,45.064952,7.657479,307.846313,0.000000,4.288000,1774433594000
NMEA,$GPGSV,3,1,11,05,19,066,24,16,21,300,16,18,57,165,24,25,28,120,21*72
,1774433594412
NMEA,$GPGSV,3,2,11,26,55,300,25,28,43,216,22,29,52,056,27,31,50,258,26*76
,1774433594412
NMEA,$GPGSV,3,3,11,04,04,312,,21,09,039,,27,01,255,*4F
,1774433594412
NMEA,$GLGSV,3,1,09,82,71,036,25,73,45,320,26,80,73,130,25,79,17,137,09*6D
,1774433594413
NMEA,$GLGSV,3,2,09,83,48,212,23,81,22,036,19,74,00,000,,65,04,012,*69
,1774433594414
NMEA,$GLGSV,3,3,09,72,03,326,*5D
,1774433594414
NMEA,$GAGSV,1,1,0,*74
,1774433594416
NMEA,$PQGSV,1,1,0,*73
,1774433594417
NMEA,$PQGSV,3,1,09,08,23,067,19,11,23,224,14,12,78,209,22,24,64,175,25,0,4*67
,1774433594418
NMEA,$PQGSV,3,2,09,25,44,302,23,26,20,149,16,02,00,000,,05,16,119,,0,4*60
,1774433594419
NMEA,$PQGSV,3,3,09,23,00,000,,0,4*53
,1774433594419
NMEA,$GNGSA,A,3,18,25,26,28,29,31,,,,,,,1.6,1.3,1.0,1*3C
,1774433594427
NMEA,$GNGSA,A,2,80,82,,,,,,,,,,,1.6,1.3,1.0,2*35
,1774433594427
NMEA,$PQGSA,A,2,24,,,,,,,,,,,,1.6,1.3,1.0,4*3F
,1774433594427
NMEA,$GNVTG,,T,,M,0.0,N,0.0,K,A*3D
,1774433594428
NMEA,$GNRMC,101314.00,A,4503.897110,N,00739.448712,E,0.0,,250326,0.3,W,A*17
,1774433594428
NMEA,$GNGGA,101314.00,4503.897110,N,00739.448712,E,1,09,1.3,259.8,M,48.0,M,,*70
,1774433594428
Fix,gps,45.064952,7.657474,307.336548,0.000000,4.288000,1774433595000
NMEA,$GPGSV,3,1,11,05,19,066,24,16,21,300,16,18,57,165,23,25,28,120,21*75
,1774433595410
NMEA,$GPGSV,3,2,11,26,55,300,25,28,43,216,22,29,52,056,27,31,50,258,26*76
,1774433595411
NMEA,$GPGSV,3,3,11,04,04,312,,21,09,039,,27,01,255,*4F
,1774433595411
NMEA,$GLGSV,3,1,09,82,71,036,24,73,45,320,25,80,73,130,24,79,17,137,09*6E
,1774433595411
NMEA,$GLGSV,3,2,09,83,48,212,22,81,22,036,20,74,00,000,,65,04,012,*62
,1774433595411
NMEA,$GLGSV,3,3,09,72,03,326,*5D
,1774433595412
NMEA,$GAGSV,1,1,0,*74
,1774433595412
NMEA,$PQGSV,1,1,0,*73
,1774433595412
NMEA,$PQGSV,3,1,09,08,23,067,17,11,23,224,14,12,78,209,22,24,64,175,24,0,4*68
,1774433595412
NMEA,$PQGSV,3,2,09,25,44,302,23,26,20,149,17,02,00,000,,05,16,119,,0,4*61
,1774433595412
NMEA,$PQGSV,3,3,09,23,00,000,,0,4*53
,1774433595412
NMEA,$GNGSA,A,3,18,25,26,28,29,31,,,,,,,1.6,1.3,1.0,1*3C
,1774433595414
NMEA,$GNGSA,A,2,80,82,,,,,,,,,,,1.6,1.3,1.0,2*35
,1774433595414
NMEA,$PQGSA,A,2,24,,,,,,,,,,,,1.6,1.3,1.0,4*3F
,1774433595414
NMEA,$GNVTG,,T,,M,0.0,N,0.0,K,A*3D
,1774433595419
NMEA,$GNRMC,101315.00,A,4503.897128,N,00739.448469,E,0.0,,250326,0.3,W,A*12
,1774433595419
NMEA,$GNGGA,101315.00,4503.897128,N,00739.448469,E,1,09,1.3,259.3,M,48.0,M,,*7E
,1774433595421
Fix,gps,45.064951,7.657472,307.517761,0.000000,4.288000,1774433596000
NMEA,$GPGSV,3,1,11,05,19,066,24,16,21,300,16,18,57,165,23,25,28,120,19*7E
,1774433596410
NMEA,$GPGSV,3,2,11,26,55,300,26,28,43,216,23,29,52,056,27,31,50,258,26*74
,1774433596410
NMEA,$GPGSV,3,3,11,04,04,312,,21,09,039,,27,01,255,*4F
,1774433596411
NMEA,$GLGSV,3,1,09,82,71,036,24,73,45,320,25,80,73,130,25,79,17,137,09*6F
,1774433596411
NMEA,$GLGSV,3,2,09,83,48,212,22,81,22,036,20,74,00,000,,65,04,012,*62
,1774433596411
NMEA,$GLGSV,3,3,09,72,03,326,*5D
,1774433596411
NMEA,$GAGSV,1,1,0,*74
,1774433596412
NMEA,$PQGSV,1,1,0,*73
,1774433596412
NMEA,$PQGSV,3,1,09,08,23,067,17,11,23,224,14,12,78,209,21,24,64,175,25,0,4*6A
,1774433596412
NMEA,$PQGSV,3,2,09,25,44,302,23,26,20,149,17,02,00,000,,05,16,119,,0,4*61
,1774433596412
NMEA,$PQGSV,3,3,09,23,00,000,,0,4*53
,1774433596414
NMEA,$GNGSA,A,3,18,25,26,28,29,31,,,,,,,1.6,1.3,1.0,1*3C
,1774433596417
NMEA,$GNGSA,A,2,80,82,,,,,,,,,,,1.6,1.3,1.0,2*35
,1774433596418
NMEA,$PQGSA,A,2,24,,,,,,,,,,,,1.6,1.3,1.0,4*3F
,1774433596420
NMEA,$GNVTG,,T,,M,0.0,N,0.0,K,A*3D
,1774433596421
NMEA,$GNRMC,101316.00,A,4503.897085,N,00739.448316,E,0.0,,250326,0.3,W,A*18
,1774433596421
NMEA,$GNGGA,101316.00,4503.897085,N,00739.448316,E,1,09,1.3,259.5,M,48.0,M,,*72
,1774433596422
Fix,gps,45.064951,7.657471,307.486694,0.000000,4.288000,1774433597000
NMEA,$GPGSV,3,1,11,05,19,066,23,16,21,300,16,18,57,165,24,25,28,120,21*75
,1774433597411
NMEA,$GPGSV,3,2,11,26,55,300,25,28,43,216,24,29,52,056,27,31,50,258,26*70
,1774433597411
NMEA,$GPGSV,3,3,11,04,04,312,,21,09,039,,27,01,255,*4F
,1774433597412
NMEA,$GLGSV,3,1,09,82,71,036,25,73,45,320,25,80,73,130,25,79,17,137,09*6E
,1774433597412
NMEA,$GLGSV,3,2,09,83,48,212,22,81,22,036,16,74,00,000,,65,04,012,*67
,1774433597412
NMEA,$GLGSV,3,3,09,72,03,326,*5D
,1774433597413
NMEA,$GAGSV,1,1,0,*74
,1774433597413
NMEA,$PQGSV,1,1,0,*73
,1774433597414
NMEA,$PQGSV,3,1,09,08,23,067,18,11,23,224,14,12,78,209,22,24,64,175,25,0,4*66
,1774433597414
NMEA,$PQGSV,3,2,09,25,44,302,23,26,20,149,19,02,00,000,,05,16,119,,0,4*6F
,1774433597414
NMEA,$PQGSV,3,3,09,23,00,000,,0,4*53
,1774433597414
NMEA,$GNGSA,A,3,18,25,26,28,29,31,,,,,,,1.6,1.3,1.0,1*3C
,1774433597416
NMEA,$GNGSA,A,2,80,82,,,,,,,,,,,1.6,1.3,1.0,2*35
,1774433597416
NMEA,$PQGSA,A,2,24,,,,,,,,,,,,1.6,1.3,1.0,4*3F
,1774433597417
NMEA,$GNVTG,,T,,M,0.0,N,0.0,K,A*3D
,1774433597417
NMEA,$GNRMC,101317.00,A,4503.897069,N,00739.448231,E,0.0,,250326,0.3,W,A*1F
,1774433597417
NMEA,$GNGGA,101317.00,4503.897069,N,00739.448231,E,1,09,1.3,259.5,M,48.0,M,,*75
,1774433597417
Fix,gps,45.064951,7.657470,307.529175,0.000000,4.288000,1774433598000
NMEA,$GPGSV,3,1,11,05,19,066,23,16,21,300,17,18,57,165,23,25,28,120,22*70
,1774433598410
NMEA,$GPGSV,3,2,11,26,55,300,25,28,43,216,22,29,52,056,27,31,50,258,26*76
,1774433598412
NMEA,$GPGSV,3,3,11,04,04,312,,21,09,039,,27,01,255,*4F
,1774433598412
NMEA,$GLGSV,3,1,09,82,71,036,25,73,45,320,25,80,73,130,24,79,17,137,09*6F
,1774433598412
NMEA,$GLGSV,3,2,09,83,48,212,22,81,22,036,18,74,00,000,,65,04,012,*69
,1774433598413
NMEA,$GLGSV,3,3,09,72,03,326,*5D
,1774433598413
NMEA,$GAGSV,1,1,0,*74
,1774433598413
NMEA,$PQGSV,1,1,0,*73
,1774433598413
NMEA,$PQGSV,3,1,09,08,23,067,18,11,23,224,14,12,78,209,23,24,64,175,25,0,4*67
,1774433598414
NMEA,$PQGSV,3,2,09,25,44,302,22,26,20,149,19,02,00,000,,05,16,119,,0,4*6E
,1774433598414
NMEA,$PQGSV,3,3,09,23,00,000,,0,4*53
,1774433598414
NMEA,$GNGSA,A,3,18,25,26,28,29,31,,,,,,,1.6,1.3,1.0,1*3C
,1774433598418
NMEA,$GNGSA,A,2,80,82,,,,,,,,,,,1.6,1.3,1.0,2*35
,1774433598418
NMEA,$PQGSA,A,2,24,,,,,,,,,,,,1.6,1.3,1.0,4*3F
,1774433598418
NMEA,$GNVTG,,T,,M,0.0,N,0.0,K,A*3D
,1774433598419
NMEA,$GNRMC,101318.00,A,4503.897052,N,00739.448181,E,0.0,,250326,0.3,W,A*10
,1774433598419
NMEA,$GNGGA,101318.00,4503.897052,N,00739.448181,E,1,09,1.3,259.5,M,48.0,M,,*7A
,1774433598419
Fix,gps,45.064951,7.657469,307.538330,0.000000,4.288000,1774433599000
NMEA,$GPGSV,3,1,11,05,19,066,23,16,21,300,17,18,57,165,24,25,28,120,22*77
,1774433599409
NMEA,$GPGSV,3,2,11,26,55,300,25,28,43,216,21,29,52,056,27,31,50,258,26*75
,1774433599410
NMEA,$GPGSV,3,3,11,04,04,312,,21,09,039,,27,01,255,*4F
,1774433599410
NMEA,$GLGSV,3,1,09,82,71,036,25,73,45,320,25,80,73,130,25,79,17,137,09*6E
,1774433599410
NMEA,$GLGSV,3,2,09,83,48,212,21,81,22,036,19,74,00,000,,65,04,012,*6B
,1774433599410
NMEA,$GLGSV,3,3,09,72,03,326,*5D
,1774433599412
NMEA,$GAGSV,1,1,0,*74
,1774433599413
NMEA,$PQGSV,1,1,0,*73
,1774433599413
NMEA,$PQGSV,3,1,09,08,23,067,19,11,23,224,14,12,78,209,23,24,64,175,25,0,4*66
,1774433599414
NMEA,$PQGSV,3,2,09,25,44,302,24,26,20,149,19,02,00,000,,05,16,119,,0,4*68
,1774433599414
NMEA,$PQGSV,3,3,09,23,00,000,,0,4*53
,1774433599415
NMEA,$GNGSA,A,3,18,25,26,28,29,31,,,,,,,1.6,1.3,1.0,1*3C
,1774433599418
NMEA,$GNGSA,A,2,80,82,,,,,,,,,,,1.6,1.3,1.0,2*35
,1774433599418
NMEA,$PQGSA,A,2,24,,,,,,,,,,,,1.6,1.3,1.0,4*3F
,1774433599418
NMEA,$GNVTG,,T,,M,0.0,N,0.0,K,A*3D
,1774433599419
NMEA,$GNRMC,101319.00,A,4503.897036,N,00739.448135,E,0.0,,250326,0.3,W,A*1C
,1774433599419
NMEA,$GNGGA,101319.00,4503.897036,N,00739.448135,E,1,09,1.3,259.5,M,48.0,M,,*76
,1774433599419
Fix,gps,45.064951,7.657468,307.535095,0.000000,4.288000,1774433600000
NMEA,$GPGSV,3,1,11,05,19,066,25,16,21,300,16,18,57,165,24,25,28,120,20*72
,1774433600411
NMEA,$GPGSV,3,2,11,26,55,300,24,28,43,216,22,29,52,056,26,31,50,258,26*76
,1774433600411
NMEA,$GPGSV,3,3,11,04,04,312,,21,09,039,,27,01,255,*4F
,1774433600411
NMEA,$GLGSV,3,1,09,82,71,036,24,73,45,320,24,80,73,130,25,79,17,137,09*6E
,1774433600412
NMEA,$GLGSV,3,2,09,83,48,212,23,81,22,036,22,74,00,000,,65,04,012,*61
,1774433600412
NMEA,$GLGSV,3,3,09,72,03,326,*5D
,1774433600413
NMEA,$GAGSV,1,1,0,*74
,1774433600415
NMEA,$PQGSV,1,1,0,*73
,1774433600416
NMEA,$PQGSV,3,1,09,08,23,067,19,11,23,224,14,12,78,209,21,24,64,175,25,0,4*64
,1774433600417
NMEA,$PQGSV,3,2,09,25,44,302,23,26,20,149,17,02,00,000,,05,16,119,,0,4*61
,1774433600419
NMEA,$PQGSV,3,3,09,23,00,000,,0,4*53
,1774433600419
NMEA,$GNGSA,A,3,18,25,26,28,29,31,,,,,,,1.6,1.3,1.0,1*3C
,1774433600421
NMEA,$GNGSA,A,2,80,82,,,,,,,,,,,1.6,1.3,1.0,2*35
,1774433600422
NMEA,$PQGSA,A,2,24,,,,,,,,,,,,1.6,1.3,1.0,4*3F
,1774433600422
NMEA,$GNVTG,,T,,M,0.0,N,0.0,K,A*3D
,1774433600423
NMEA,$GNRMC,101320.00,A,4503.897032,N,00739.448108,E,0.0,,250326,0.3,W,A*1C
,1774433600423
NMEA,$GNGGA,101320.00,4503.897032,N,00739.448108,E,1,09,1.3,259.5,M,48.0,M,,*76
,1774433600424
Fix,gps,45.064951,7.657468,307.516907,0.000000,4.288000,1774433601000
NMEA,$GPGSV,3,1,11,05,19,066,23,16,21,300,17,18,57,165,23,25,28,120,21*73
,1774433601409
NMEA,$GPGSV,3,2,11,26,55,300,25,28,43,216,22,29,52,056,26,31,50,258,26*77
,1774433601409
NMEA,$GPGSV,3,3,11,04,04,312,,21,09,039,,27,01,255,*4F
,1774433601410
NMEA,$GLGSV,3,1,09,82,71,036,24,73,45,320,25,80,73,130,25,79,17,137,09*6F
,1774433601410
NMEA,$GLGSV,3,2,09,83,48,212,22,81,22,036,26,74,00,000,,65,04,012,*64
,1774433601410
NMEA,$GLGSV,3,3,09,72,03,326,*5D
,1774433601410
NMEA,$GAGSV,1,1,0,*74
,1774433601410
NMEA,$PQGSV,1,1,0,*73
,1774433601410
NMEA,$PQGSV,3,1,09,08,23,067,18,11,23,224,14,12,78,209,22,24,64,175,26,0,4*65
,1774433601411
NMEA,$PQGSV,3,2,09,25,44,302,23,26,20,149,17,02,00,000,,05,16,119,,0,4*61
,1774433601411
NMEA,$PQGSV,3,3,09,23,00,000,,0,4*53
,1774433601411
NMEA,$GNGSA,A,3,18,25,26,28,29,31,,,,,,,1.6,1.3,1.0,1*3C
,1774433601416
NMEA,$GNGSA,A,2,80,82,,,,,,,,,,,1.6,1.3,1.0,2*35
,1774433601416
NMEA,$PQGSA,A,2,24,,,,,,,,,,,,1.6,1.3,1.0,4*3F
,1774433601416
NMEA,$GNVTG,,T,,M,0.0,N,0.0,K,A*3D
,1774433601417
NMEA,$GNRMC,101321.00,A,4503.897030,N,00739.448093,E,0.0,,250326,0.3,W,A*1C
,1774433601417
NMEA,$GNGGA,101321.00,4503.897030,N,00739.448093,E,1,09,1.3,259.5,M,48.0,M,,*76
,1774433601417
Fix,gps,45.064950,7.657468,307.526123,0.000000,4.288000,1774433602000
NMEA,$GPGSV,3,1,11,05,19,066,24,16,21,300,19,18,57,165,24,25,28,120,22*7E
,1774433602411
NMEA,$GPGSV,3,2,11,26,55,300,26,28,43,216,22,29,52,056,26,31,50,258,25*77
,1774433602412
NMEA,$GPGSV,3,3,11,04,04,312,,21,09,039,,27,01,255,*4F
,1774433602412
NMEA,$GLGSV,3,1,09,82,71,036,23,73,45,320,25,80,73,130,25,79,17,137,09*68
,1774433602412
NMEA,$GLGSV,3,2,09,83,48,212,22,81,22,036,27,74,00,000,,65,04,012,*65
,1774433602412
NMEA,$GLGSV,3,3,09,72,03,326,*5D
,1774433602413
NMEA,$GAGSV,1,1,0,*74
,1774433602413
NMEA,$PQGSV,1,1,0,*73
,1774433602413
NMEA,$PQGSV,3,1,09,08,23,067,20,11,23,224,16,12,78,209,24,24,64,175,25,0,4*69
,1774433602413
NMEA,$PQGSV,3,2,09,25,44,302,24,26,20,149,18,02,00,000,,05,16,119,,0,4*69
,1774433602413
NMEA,$PQGSV,3,3,09,23,00,000,,0,4*53
,1774433602413
NMEA,$GNGSA,A,3,18,25,26,28,29,31,,,,,,,1.6,1.3,1.0,1*3C
,1774433602416
NMEA,$GNGSA,A,2,80,82,,,,,,,,,,,1.6,1.3,1.0,2*35
,1774433602416
NMEA,$PQGSA,A,2,24,,,,,,,,,,,,1.6,1.3,1.0,4*3F
,1774433602416
NMEA,$GNVTG,,T,,M,0.0,N,0.0,K,A*3D
,1774433602416
NMEA,$GNRMC,101322.00,A,4503.897029,N,00739.448085,E,0.0,,250326,0.3,W,A*10
,1774433602416
NMEA,$GNGGA,101322.00,4503.897029,N,00739.448085,E,1,09,1.3,259.5,M,48.0,M,,*7A
,1774433602416
Fix,gps,45.064950,7.657468,307.526672,0.000000,4.288000,1774433603000
NMEA,$GPGSV,3,1,11,05,19,066,24,16,21,300,19,18,57,165,24,25,28,120,19*76
,1774433603409
NMEA,$GPGSV,3,2,11,26,55,300,25,28,43,216,20,29,52,056,26,31,50,258,26*75
,1774433603410
NMEA,$GPGSV,3,3,11,04,04,312,,21,09,039,,27,01,255,*4F
,1774433603410
NMEA,$GLGSV,3,1,09,82,71,036,24,73,45,320,25,80,73,130,26,79,17,137,09*6C
,1774433603410
NMEA,$GLGSV,3,2,09,83,48,212,23,81,22,036,27,74,00,000,,65,04,012,*64
,1774433603411
NMEA,$GLGSV,3,3,09,72,03,326,*5D
,1774433603411
NMEA,$GAGSV,1,1,0,*74
,1774433603412
NMEA,$PQGSV,1,1,0,*73
,1774433603413
NMEA,$PQGSV,3,1,09,08,23,067,19,11,23,224,16,12,78,209,22,24,64,175,25,0,4*65
,1774433603413
NMEA,$PQGSV,3,2,09,25,44,302,23,26,20,149,18,02,00,000,,05,16,119,,0,4*6E
,1774433603413
NMEA,$PQGSV,3,3,09,23,00,000,,0,4*53
,1774433603414
NMEA,$GNGSA,A,3,18,25,26,28,29,31,,,,,,,1.6,1.3,1.0,1*3C
,1774433603415
NMEA,$GNGSA,A,2,80,82,,,,,,,,,,,1.6,1.3,1.0,2*35
,1774433603416
NMEA,$PQGSA,A,2,24,,,,,,,,,,,,1.6,1.3,1.0,4*3F
,1774433603416
NMEA,$GNVTG,,T,,M,0.0,N,0.0,K,A*3D
,1774433603416
NMEA,$GNRMC,101323.00,A,4503.897028,N,00739.448081,E,0.0,,250326,0.3,W,A*14
,1774433603416
NMEA,$GNGGA,101323.00,4503.897028,N,00739.448081,E,1,09,1.3,259.5,M,48.0,M,,*7E
,1774433603417
Fix,gps,45.064950,7.657468,307.524780,0.000000,3.216000,1774433604000
NMEA,$GPGSV,3,1,11,05,19,066,24,16,21,300,18,18,57,165,23,25,28,120,21*7B
,1774433604410
NMEA,$GPGSV,3,2,11,26,55,300,25,28,43,216,20,29,52,056,26,31,50,258,26*75
,1774433604411
NMEA,$GPGSV,3,3,11,04,04,312,,21,09,039,,27,01,255,*4F
,1774433604412
NMEA,$GLGSV,3,1,09,82,71,036,24,73,45,320,24,80,73,130,25,79,17,137,09*6E
,1774433604412
NMEA,$GLGSV,3,2,09,83,48,212,22,81,22,036,23,74,00,000,,65,04,012,*61
,1774433604412
NMEA,$GLGSV,3,3,09,72,03,326,*5D
,1774433604413
NMEA,$GAGSV,1,1,0,*74
,1774433604413
NMEA,$PQGSV,1,1,0,*73
,1774433604413
NMEA,$PQGSV,3,1,09,08,23,067,19,11,23,224,16,12,78,209,23,24,64,175,25,0,4*64
,1774433604414
NMEA,$PQGSV,3,2,09,25,44,302,23,26,20,149,16,02,00,000,,05,16,119,,0,4*60
,1774433604414
NMEA,$PQGSV,3,3,09,23,00,000,,0,4*53
,1774433604414
NMEA,$GNGSA,A,3,18,25,26,28,29,31,,,,,,,1.6,1.3,1.0,1*3C
,1774433604416
NMEA,$GNGSA,A,2,80,82,,,,,,,,,,,1.6,1.3,1.0,2*35
,1774433604416
NMEA,$PQGSA,A,2,24,,,,,,,,,,,,1.6,1.3,1.0,4*3F
,1774433604417
NMEA,$GNVTG,,T,,M,0.0,N,0.0,K,A*3D
,1774433604417
NMEA,$GNRMC,101324.00,A,4503.897028,N,00739.448078,E,0.0,,250326,0.3,W,A*15
,1774433604417
NMEA,$GNGGA,101324.00,4503.897028,N,00739.448078,E,1,09,1.3,259.5,M,48.0,M,,*7F
,1774433604418
Fix,gps,45.064950,7.657468,307.514160,0.000000,9.648001,1774433605000
NMEA,$GPGSV,3,1,11,05,19,066,22,16,21,300,19,18,57,165,24,25,28,120,20*7A
,1774433605411
NMEA,$GPGSV,3,2,11,26,55,300,25,28,43,216,22,29,52,056,26,31,50,258,26*77
,1774433605412
NMEA,$GPGSV,3,3,11,04,04,312,,21,09,039,,27,01,255,*4F
,1774433605413
NMEA,$GLGSV,3,1,09,82,71,036,24,73,45,320,24,80,73,130,25,79,17,137,09*6E
,1774433605413
NMEA,$GLGSV,3,2,09,83,48,212,24,81,22,036,24,74,00,000,,65,04,012,*60
,1774433605413
NMEA,$GLGSV,3,3,09,72,03,326,*5D
,1774433605414
NMEA,$GAGSV,1,1,0,*74
,1774433605414
NMEA,$PQGSV,1,1,0,*73
,1774433605414
NMEA,$PQGSV,3,1,09,08,23,067,19,11,23,224,14,12,78,209,23,24,64,175,25,0,4*66
,1774433605415
NMEA,$PQGSV,3,2,09,25,44,302,24,26,20,149,19,02,00,000,,05,16,119,,0,4*68
,1774433605415
NMEA,$PQGSV,3,3,09,23,00,000,,0,4*53
,1774433605415
NMEA,$GNGSA,A,3,18,25,26,28,29,31,,,,,,,1.6,1.3,1.0,1*3C
,1774433605418
NMEA,$GNGSA,A,2,80,82,,,,,,,,,,,1.6,1.3,1.0,2*35
,1774433605418
NMEA,$PQGSA,A,2,24,,,,,,,,,,,,1.6,1.3,1.0,4*3F
,1774433605418
NMEA,$GNVTG,,T,,M,0.0,N,0.0,K,A*3D
,1774433605418
NMEA,$GNRMC,101325.00,A,4503.897026,N,00739.448075,E,0.0,,250326,0.3,W,A*17
,1774433605420
NMEA,$GNGGA,101325.00,4503.897026,N,00739.448075,E,1,09,1.3,259.5,M,48.0,M,,*7D
,1774433605420
Fix,gps,45.064950,7.657468,307.513855,0.000000,9.648001,1774433606000
NMEA,$GPGSV,3,1,11,05,19,066,19,16,21,300,17,18,57,165,23,25,28,120,21*7A
,1774433606414
NMEA,$GPGSV,3,2,11,26,55,300,26,28,43,216,22,29,52,056,27,31,50,258,26*75
,1774433606415
NMEA,$GPGSV,3,3,11,04,04,312,,21,09,039,,27,01,255,*4F
,1774433606416
NMEA,$GLGSV,2,1,08,82,71,036,25,73,45,320,23,80,73,130,25,83,48,212,23*6B
,1774433606417
NMEA,$GLGSV,2,2,08,81,22,036,24,74,00,000,,65,04,012,,72,03,326,*61
,1774433606418
NMEA,$GAGSV,1,1,0,*74
,1774433606419
NMEA,$PQGSV,1,1,0,*73
,1774433606419
NMEA,$PQGSV,3,1,09,08,23,067,18,11,23,224,14,12,78,209,22,24,64,175,25,0,4*66
,1774433606419
NMEA,$PQGSV,3,2,09,25,44,302,23,26,20,149,17,02,00,000,,05,16,119,,0,4*61
,1774433606419
NMEA,$PQGSV,3,3,09,23,00,000,,0,4*53
,1774433606420
NMEA,$GNGSA,A,3,18,25,26,28,29,31,,,,,,,1.6,1.3,1.0,1*3C
,1774433606422
NMEA,$GNGSA,A,2,80,82,,,,,,,,,,,1.6,1.3,1.0,2*35
,1774433606423
NMEA,$PQGSA,A,2,24,,,,,,,,,,,,1.6,1.3,1.0,4*3F
,1774433606423
NMEA,$GNVTG,,T,,M,0.0,N,0.0,K,A*3D
,1774433606423
NMEA,$GNRMC,101326.00,A,4503.897024,N,00739.448074,E,0.0,,250326,0.3,W,A*17
,1774433606424
NMEA,$GNGGA,101326.00,4503.897024,N,00739.448074,E,1,09,1.3,259.5,M,48.0,M,,*7D
,1774433606426
Fix,gps,45.064950,7.657468,307.505737,0.000000,9.648001,1774433607000
NMEA,$GPGSV,3,1,11,05,19,066,19,16,21,300,17,18,57,165,23,25,28,120,20*7B
,1774433607409
NMEA,$GPGSV,3,2,11,26,55,300,26,28,43,216,20,29,52,056,26,31,50,258,25*75
,1774433607410
NMEA,$GPGSV,3,3,11,04,04,312,,21,09,039,,27,01,255,*4F
,1774433607410
NMEA,$GLGSV,3,1,09,82,71,036,23,73,45,320,24,80,73,130,25,83,48,212,22*6B
,1774433607410
NMEA,$GLGSV,3,2,09,81,22,036,24,74,00,000,,79,17,137,,65,04,012,*6D
,1774433607410
NMEA,$GLGSV,3,3,09,72,03,326,*5D
,1774433607410
NMEA,$GAGSV,1,1,0,*74
,1774433607411
NMEA,$PQGSV,1,1,0,*73
,1774433607411
NMEA,$PQGSV,3,1,09,08,23,067,18,11,23,224,14,12,78,209,23,24,64,175,25,0,4*67
,1774433607411
NMEA,$PQGSV,3,2,09,25,44,302,23,26,20,149,18,02,00,000,,05,16,119,,0,4*6E
,1774433607412
NMEA,$PQGSV,3,3,09,23,00,000,,0,4*53
,1774433607412
NMEA,$GNGSA,A,3,18,25,26,28,29,31,,,,,,,1.6,1.3,1.0,1*3C
,1774433607413
NMEA,$GNGSA,A,2,80,82,,,,,,,,,,,1.6,1.3,1.0,2*35
,1774433607415
NMEA,$PQGSA,A,2,24,,,,,,,,,,,,1.6,1.3,1.0,4*3F
,1774433607415
NMEA,$GNVTG,,T,,M,0.0,N,0.0,K,A*3D
,1774433607415
NMEA,$GNRMC,101327.00,A,4503.897021,N,00739.448072,E,0.0,,250326,0.3,W,A*15
,1774433607415
NMEA,$GNGGA,101327.00,4503.897021,N,00739.448072,E,1,09,1.3,259.5,M,48.0,M,,*7F
,1774433607416
Fix,gps,45.064950,7.657468,307.493164,0.000000,9.648001,1774433608000
NMEA,$GPGSV,3,1,11,05,19,066,19,16,21,300,19,18,57,165,23,25,28,120,22*77
,1774433608410
NMEA,$GPGSV,3,2,11,26,55,300,26,28,43,216,21,29,52,056,27,31,50,258,25*75
,1774433608414
NMEA,$GPGSV,3,3,11,04,04,312,,21,09,039,,27,01,255,*4F
,1774433608416
NMEA,$GLGSV,3,1,09,82,71,036,25,73,45,320,24,80,73,130,25,83,48,212,22*6D
,1774433608417
NMEA,$GLGSV,3,2,09,81,22,036,25,74,00,000,,79,17,137,,65,04,012,*6C
,1774433608418
NMEA,$GLGSV,3,3,09,72,03,326,*5D
,1774433608419
NMEA,$GAGSV,1,1,0,*74
,1774433608419
NMEA,$PQGSV,1,1,0,*73
,1774433608420
NMEA,$PQGSV,3,1,09,08,23,067,20,11,23,224,14,12,78,209,22,24,64,175,25,0,4*6D
,1774433608420
NMEA,$PQGSV,3,2,09,25,44,302,24,26,20,149,18,02,00,000,,05,16,119,,0,4*69
,1774433608420
NMEA,$PQGSV,3,3,09,23,00,000,,0,4*53
,1774433608421
NMEA,$GNGSA,A,3,18,25,26,28,29,31,,,,,,,1.6,1.3,1.0,1*3C
,1774433608422
NMEA,$GNGSA,A,2,80,82,,,,,,,,,,,1.6,1.3,1.0,2*35
,1774433608422
NMEA,$PQGSA,A,2,24,,,,,,,,,,,,1.6,1.3,1.0,4*3F
,1774433608422
NMEA,$GNVTG,,T,,M,0.0,N,0.0,K,A*3D
,1774433608423
NMEA,$GNRMC,101328.00,A,4503.897018,N,00739.448070,E,0.0,,250326,0.3,W,A*12
,1774433608423
NMEA,$GNGGA,101328.00,4503.897018,N,00739.448070,E,1,09,1.3,259.5,M,48.0,M,,*78
,1774433608423
Fix,gps,45.064950,7.657468,307.484009,0.000000,9.648001,1774433609000
NMEA,$GPGSV,3,1,11,05,19,066,16,16,21,300,18,18,57,165,23,25,28,120,20*7B
,1774433609412
NMEA,$GPGSV,3,2,11,26,55,300,26,28,43,216,20,29,52,056,26,31,50,258,25*75
,1774433609412
NMEA,$GPGSV,3,3,11,04,04,312,,21,09,039,,27,01,255,*4F
,1774433609412
NMEA,$GLGSV,3,1,09,82,71,036,24,73,45,320,24,80,73,130,25,83,48,212,22*6C
,1774433609413
NMEA,$GLGSV,3,2,09,81,22,036,25,74,00,000,,79,17,137,,65,04,012,*6C
,1774433609413
NMEA,$GLGSV,3,3,09,72,03,326,*5D
,1774433609414
NMEA,$GAGSV,1,1,0,*74
,1774433609414
NMEA,$PQGSV,1,1,0,*73
,1774433609414
NMEA,$PQGSV,3,1,09,08,23,067,19,11,23,224,14,12,78,209,23,24,64,175,26,0,4*65
,1774433609414
NMEA,$PQGSV,3,2,09,25,44,302,24,26,20,149,19,02,00,000,,05,16,119,,0,4*68
,1774433609414
NMEA,$PQGSV,3,3,09,23,00,000,,0,4*53
,1774433609414
NMEA,$GNGSA,A,3,18,25,26,28,29,31,,,,,,,1.6,1.3,1.0,1*3C
,1774433609416
NMEA,$GNGSA,A,2,80,82,,,,,,,,,,,1.6,1.3,1.0,2*35
,1774433609416
NMEA,$PQGSA,A,2,24,,,,,,,,,,,,1.6,1.3,1.0,4*3F
,1774433609417
NMEA,$GNVTG,,T,,M,0.0,N,0.0,K,A*3D
,1774433609417
NMEA,$GNRMC,101329.00,A,4503.897016,N,00739.448069,E,0.0,,250326,0.3,W,A*15
,1774433609417
NMEA,$GNGGA,101329.00,4503.897016,N,00739.448069,E,1,09,1.3,259.5,M,48.0,M,,*7F
,1774433609417
Fix,gps,45.064950,7.657468,307.486572,0.000000,9.648001,1774433610000
NMEA,$GPGSV,3,1,11,05,19,066,16,16,21,300,19,18,57,165,24,25,28,120,20*7D
,1774433610410
NMEA,$GPGSV,3,2,11,26,55,300,25,28,43,216,20,29,52,056,26,31,50,258,25*76
,1774433610412
NMEA,$GPGSV,3,3,11,04,04,312,,21,09,039,,27,01,255,*4F
,1774433610413
NMEA,$GLGSV,3,1,09,82,71,036,25,73,45,320,24,80,73,130,25,83,48,212,23*6C
,1774433610413
NMEA,$GLGSV,3,2,09,81,22,036,25,74,00,000,,79,17,137,,65,04,012,*6C
,1774433610413
NMEA,$GLGSV,3,3,09,72,03,326,*5D
,1774433610413
NMEA,$GAGSV,1,1,0,*74
,1774433610413
NMEA,$PQGSV,1,1,0,*73
,1774433610414
NMEA,$PQGSV,3,1,09,08,23,067,17,11,23,224,13,12,78,209,23,24,64,175,25,0,4*6F
,1774433610415
NMEA,$PQGSV,3,2,09,25,44,302,24,26,20,149,18,02,00,000,,05,16,119,,0,4*69
,1774433610415
NMEA,$PQGSV,3,3,09,23,00,000,,0,4*53
,1774433610415
NMEA,$GNGSA,A,3,18,25,26,28,29,31,,,,,,,1.6,1.3,1.0,1*3C
,1774433610417
NMEA,$GNGSA,A,2,80,82,,,,,,,,,,,1.6,1.3,1.0,2*35
,1774433610418
NMEA,$PQGSA,A,2,24,,,,,,,,,,,,1.6,1.3,1.0,4*3F
,1774433610418
NMEA,$GNVTG,,T,,M,0.0,N,0.0,K,A*3D
,1774433610418
NMEA,$GNRMC,101330.00,A,4503.897015,N,00739.448067,E,0.0,,250326,0.3,W,A*10
,1774433610419
NMEA,$GNGGA,101330.00,4503.897015,N,00739.448067,E,1,09,1.3,259.5,M,48.0,M,,*7A
,1774433610419
Fix,gps,45.064950,7.657468,307.487061,0.000000,9.648001,1774433611000
NMEA,$GPGSV,3,1,11,05,19,066,16,16,21,300,20,18,58,165,23,25,28,120,22*7D
,1774433611412
NMEA,$GPGSV,3,2,11,26,55,300,26,28,43,216,21,29,52,056,26,31,50,258,26*77
,1774433611412
NMEA,$GPGSV,3,3,11,04,04,312,,21,09,039,,27,01,255,*4F
,1774433611413
NMEA,$GLGSV,3,1,09,82,71,036,25,73,45,320,24,80,73,130,24,83,48,212,23*6D
,1774433611413
NMEA,$GLGSV,3,2,09,81,22,036,26,74,00,000,,79,17,137,,65,04,012,*6F
,1774433611414
NMEA,$GLGSV,3,3,09,72,03,326,*5D
,1774433611414
NMEA,$GAGSV,1,1,0,*74
,1774433611414
NMEA,$PQGSV,1,1,0,*73
,1774433611415
NMEA,$PQGSV,3,1,09,08,23,067,17,11,23,224,13,12,78,209,23,24,64,175,25,0,4*6F
,1774433611417
NMEA,$PQGSV,3,2,09,25,44,302,24,26,20,149,18,02,00,000,,05,16,119,,0,4*69
,1774433611417
NMEA,$PQGSV,3,3,09,23,00,000,,0,4*53
,1774433611417
NMEA,$GNGSA,A,3,18,25,26,28,29,31,,,,,,,1.6,1.3,1.0,1*3C
,1774433611419
NMEA,$GNGSA,A,2,80,82,,,,,,,,,,,1.6,1.3,1.0,2*35
,1774433611420
NMEA,$PQGSA,A,2,24,,,,,,,,,,,,1.6,1.3,1.0,4*3F
,1774433611420
NMEA,$GNVTG,,T,,M,0.0,N,0.0,K,A*3D
,1774433611421
NMEA,$GNRMC,101331.00,A,4503.897014,N,00739.448066,E,0.0,,250326,0.3,W,A*11
,1774433611421
NMEA,$GNGGA,101331.00,4503.897014,N,00739.448066,E,1,09,1.3,259.5,M,48.0,M,,*7B
,1774433611421
Fix,gps,45.064950,7.657468,307.485779,0.000000,9.648001,1774433612000
NMEA,$GPGSV,3,1,11,05,19,066,16,16,21,300,17,18,58,165,23,25,28,120,21*7A
,1774433612411
NMEA,$GPGSV,3,2,11,26,55,300,25,28,43,216,20,29,52,056,26,31,50,258,25*76
,1774433612412
NMEA,$GPGSV,3,3,11,04,04,312,,21,09,039,,27,01,255,*4F
,1774433612412
NMEA,$GLGSV,3,1,09,82,71,036,24,73,45,320,24,80,73,130,25,83,48,212,21*6F
,1774433612413
NMEA,$GLGSV,3,2,09,81,22,036,25,74,00,000,,79,17,137,,65,04,012,*6C
,1774433612413
NMEA,$GLGSV,3,3,09,72,03,326,*5D
,1774433612414
NMEA,$GAGSV,1,1,0,*74
,1774433612414
NMEA,$PQGSV,1,1,0,*73
,1774433612415
NMEA,$PQGSV,3,1,09,08,23,067,19,11,23,224,13,12,78,209,22,24,64,175,25,0,4*60
,1774433612416
NMEA,$PQGSV,3,2,09,25,44,302,24,26,20,149,19,02,00,000,,05,16,119,,0,4*68
,1774433612416
NMEA,$PQGSV,3,3,09,23,00,000,,0,4*53
,1774433612416
NMEA,$GNGSA,A,3,18,25,26,28,29,31,,,,,,,1.6,1.3,1.0,1*3C
,1774433612419
NMEA,$GNGSA,A,2,80,82,,,,,,,,,,,1.6,1.3,1.0,2*35
,1774433612420
NMEA,$PQGSA,A,2,24,,,,,,,,,,,,1.6,1.3,1.0,4*3F
,1774433612420
NMEA,$GNVTG,,T,,M,0.0,N,0.0,K,A*3D
,1774433612421
NMEA,$GNRMC,101332.00,A,4503.897013,N,00739.448063,E,0.0,,250326,0.3,W,A*10
,1774433612421
NMEA,$GNGGA,101332.00,4503.897013,N,00739.448063,E,1,09,1.3,259.5,M,48.0,M,,*7A
,1774433612421
Fix,gps,45.064950,7.657468,307.483643,0.000000,9.648001,1774433613000
NMEA,$GPGSV,3,1,11,05,19,066,14,16,21,300,18,18,58,165,23,25,28,120,22*74
,1774433613411
NMEA,$GPGSV,3,2,11,26,55,300,25,28,43,216,21,29,52,056,26,31,50,258,26*74
,1774433613412
NMEA,$GPGSV,3,3,11,04,04,312,,21,09,039,,27,01,255,*4F
,1774433613413
NMEA,$GLGSV,3,1,09,82,71,036,25,73,45,320,24,80,73,130,26,83,48,212,22*6E
,1774433613413
NMEA,$GLGSV,3,2,09,81,22,036,25,74,00,000,,79,17,137,,65,04,012,*6C
,1774433613413
NMEA,$GLGSV,3,3,09,72,03,326,*5D
,1774433613414
NMEA,$GAGSV,1,1,0,*74
,1774433613414
NMEA,$PQGSV,1,1,0,*73
,1774433613414
NMEA,$PQGSV,3,1,09,08,23,067,17,11,23,224,15,12,78,209,23,24,64,175,25,0,4*69
,1774433613414
NMEA,$PQGSV,3,2,09,25,44,302,23,26,20,149,17,02,00,000,,05,16,119,,0,4*61
,1774433613415
NMEA,$PQGSV,3,3,09,23,00,000,,0,4*53
,1774433613415
NMEA,$GNGSA,A,3,18,25,26,28,29,31,,,,,,,1.6,1.3,1.0,1*3C
,1774433613416
NMEA,$GNGSA,A,2,80,82,,,,,,,,,,,1.6,1.3,1.0,2*35
,1774433613417
NMEA,$PQGSA,A,2,24,,,,,,,,,,,,1.6,1.3,1.0,4*3F
,1774433613417
NMEA,$GNVTG,,T,,M,0.0,N,0.0,K,A*3D
,1774433613417
NMEA,$GNRMC,101333.00,A,4503.897012,N,00739.448061,E,0.0,,250326,0.3,W,A*12
,1774433613418
NMEA,$GNGGA,101333.00,4503.897012,N,00739.448061,E,1,09,1.3,259.5,M,48.0,M,,*78
,1774433613419
Fix,gps,45.064950,7.657468,307.484009,0.000000,9.648001,1774433614000
NMEA,$GPGSV,3,1,11,05,19,066,17,16,21,300,19,18,58,165,23,25,28,120,22*76
,1774433614411
NMEA,$GPGSV,3,2,11,26,55,300,26,28,43,216,21,29,52,056,26,31,50,258,26*77
,1774433614412
NMEA,$GPGSV,3,3,11,04,04,312,,21,09,039,,27,01,255,*4F
,1774433614412
NMEA,$GLGSV,3,1,09,82,71,036,25,73,45,320,24,80,73,130,24,83,48,212,22*6C
,1774433614412
NMEA,$GLGSV,3,2,09,81,22,036,24,74,00,000,,79,17,137,,65,04,012,*6D
,1774433614412
NMEA,$GLGSV,3,3,09,72,03,326,*5D
,1774433614412
NMEA,$GAGSV,1,1,0,*74
,1774433614413
NMEA,$PQGSV,1,1,0,*73
,1774433614413
NMEA,$PQGSV,3,1,09,08,23,067,17,11,23,224,15,12,78,209,23,24,64,175,25,0,4*69
,1774433614413
NMEA,$PQGSV,3,2,09,25,44,302,24,26,20,149,17,02,00,000,,05,16,119,,0,4*66
,1774433614413
NMEA,$PQGSV,3,3,09,23,00,000,,0,4*53
,1774433614413
NMEA,$GNGSA,A,3,18,25,26,28,29,31,,,,,,,1.6,1.3,1.0,1*3C
,1774433614417
NMEA,$GNGSA,A,2,80,82,,,,,,,,,,,1.6,1.3,1.0,2*35
,1774433614419
NMEA,$PQGSA,A,2,24,,,,,,,,,,,,1.6,1.3,1.0,4*3F
,1774433614420
NMEA,$GNVTG,,T,,M,0.0,N,0.0,K,A*3D
,1774433614420
NMEA,$GNRMC,101334.00,A,4503.897011,N,00739.448057,E,0.0,,250326,0.3,W,A*13
,1774433614421
NMEA,$GNGGA,101334.00,4503.897011,N,00739.448057,E,1,09,1.3,259.5,M,48.0,M,,*79
,1774433614422
Fix,gps,45.064950,7.657468,307.494019,0.000000,9.648001,1774433615000
NMEA,$GPGSV,3,1,11,05,19,066,17,16,21,300,20,18,58,165,23,25,28,120,21*7F
,1774433615412
NMEA,$GPGSV,3,2,11,26,55,300,25,28,43,216,21,29,52,056,26,31,50,258,26*74
,1774433615412
NMEA,$GPGSV,3,3,11,04,04,312,,21,09,039,,27,01,255,*4F
,1774433615412
NMEA,$GLGSV,3,1,09,82,71,036,24,73,45,320,24,80,73,130,25,83,48,212,23*6D
,1774433615412
NMEA,$GLGSV,3,2,09,81,22,036,24,74,00,000,,79,17,137,,65,04,012,*6D
,1774433615412
NMEA,$GLGSV,3,3,09,72,03,326,*5D
,1774433615412
NMEA,$GAGSV,1,1,0,*74
,1774433615413
NMEA,$PQGSV,1,1,0,*73
,1774433615413
NMEA,$PQGSV,3,1,09,08,23,067,17,11,23,224,16,12,78,209,22,24,64,175,25,0,4*6B
,1774433615419
NMEA,$PQGSV,3,2,09,25,44,302,23,26,20,149,17,02,00,000,,05,16,119,,0,4*61
,1774433615419
NMEA,$PQGSV,3,3,09,23,00,000,,0,4*53
,1774433615419
NMEA,$GNGSA,A,3,18,25,26,28,29,31,,,,,,,1.6,1.3,1.0,1*3C
,1774433615421
NMEA,$GNGSA,A,2,80,82,,,,,,,,,,,1.6,1.3,1.0,2*35
,1774433615422
NMEA,$PQGSA,A,2,24,,,,,,,,,,,,1.6,1.3,1.0,4*3F
,1774433615424
NMEA,$GNVTG,,T,,M,0.0,N,0.0,K,A*3D
,1774433615425
NMEA,$GNRMC,101335.00,A,4503.897010,N,00739.448055,E,0.0,,250326,0.3,W,A*11
,1774433615425
NMEA,$GNGGA,101335.00,4503.897010,N,00739.448055,E,1,09,1.3,259.5,M,48.0,M,,*7B
,1774433615426
Fix,gps,45.064950,7.657468,307.499451,0.000000,9.648001,1774433616000
NMEA,$GPGSV,3,1,11,05,19,066,17,16,21,300,20,18,58,165,23,25,28,120,22*7C
,1774433616413
NMEA,$GPGSV,3,2,11,26,55,300,25,28,43,216,21,29,52,056,26,31,50,258,25*77
,1774433616414
NMEA,$GPGSV,3,3,11,04,04,312,,21,09,039,,27,01,255,*4F
,1774433616414
NMEA,$GLGSV,3,1,09,82,71,036,25,73,45,320,23,80,73,130,24,83,48,212,22*6B
,1774433616416
NMEA,$GLGSV,3,2,09,81,22,036,24,74,00,000,,79,17,137,,65,04,012,*6D
,1774433616418
NMEA,$GLGSV,3,3,09,72,03,326,*5D
,1774433616419
NMEA,$GAGSV,1,1,0,*74
,1774433616419
NMEA,$PQGSV,1,1,0,*73
,1774433616420
NMEA,$PQGSV,3,1,09,08,23,067,17,11,23,224,16,12,78,209,23,24,64,175,25,0,4*6A
,1774433616420
NMEA,$PQGSV,3,2,09,25,44,302,24,26,20,149,17,02,00,000,,05,16,119,,0,4*66
,1774433616420
NMEA,$PQGSV,3,3,09,23,00,000,,0,4*53
,1774433616420
NMEA,$GNGSA,A,3,18,25,26,28,29,31,,,,,,,1.6,1.3,1.0,1*3C
,1774433616422
NMEA,$GNGSA,A,2,80,82,,,,,,,,,,,1.6,1.3,1.0,2*35
,1774433616423
NMEA,$PQGSA,A,2,24,,,,,,,,,,,,1.6,1.3,1.0,4*3F
,1774433616423
NMEA,$GNVTG,,T,,M,0.0,N,0.0,K,A*3D
,1774433616423
NMEA,$GNRMC,101336.00,A,4503.897010,N,00739.448052,E,0.0,,250326,0.3,W,A*15
,1774433616424
NMEA,$GNGGA,101336.00,4503.897010,N,00739.448052,E,1,09,1.3,259.5,M,48.0,M,,*7F
,1774433616424
Fix,gps,45.064950,7.657467,307.499512,0.000000,9.648001,1774433617000
NMEA,$GPGSV,3,1,11,05,19,066,20,16,21,300,20,18,58,165,24,25,28,120,23*7E
,1774433617415
NMEA,$GPGSV,3,2,11,26,55,300,25,28,43,216,22,29,52,056,26,31,50,258,26*77
,1774433617415
NMEA,$GPGSV,3,3,11,04,04,312,,21,09,039,,27,01,255,*4F
,1774433617416
NMEA,$GLGSV,3,1,09,82,71,036,24,73,45,320,23,80,73,130,24,83,48,212,22*6A
,1774433617417
NMEA,$GLGSV,3,2,09,81,22,036,25,74,00,000,,79,17,137,,65,04,012,*6C
,1774433617417
NMEA,$GLGSV,3,3,09,72,03,326,*5D
,1774433617417
NMEA,$GAGSV,1,1,0,*74
,1774433617417
NMEA,$PQGSV,1,1,0,*73
,1774433617418
NMEA,$PQGSV,3,1,09,08,23,067,19,11,23,224,16,12,78,209,23,24,64,175,25,0,4*64
,1774433617418
NMEA,$PQGSV,3,2,09,25,44,302,24,26,20,149,18,02,00,000,,05,16,119,,0,4*69
,1774433617418
NMEA,$PQGSV,3,3,09,23,00,000,,0,4*53
,1774433617419
NMEA,$GNGSA,A,3,18,25,26,28,29,31,,,,,,,1.6,1.3,1.0,1*3C
,1774433617420
NMEA,$GNGSA,A,2,80,82,,,,,,,,,,,1.6,1.3,1.0,2*35
,1774433617420
NMEA,$PQGSA,A,2,24,,,,,,,,,,,,1.6,1.3,1.0,4*3F
,1774433617420
NMEA,$GNVTG,,T,,M,0.0,N,0.0,K,A*3D
,1774433617421
NMEA,$GNRMC,101337.00,A,4503.897009,N,00739.448048,E,0.0,,250326,0.3,W,A*17
,1774433617421
NMEA,$GNGGA,101337.00,4503.897009,N,00739.448048,E,1,09,1.3,259.5,M,48.0,M,,*7D
,1774433617421
Fix,gps,45.064950,7.657467,307.504761,0.000000,9.648001,1774433618000
NMEA,$GPGSV,3,1,11,05,19,066,19,16,21,300,20,18,58,165,23,25,28,120,22*72
,1774433618410
NMEA,$GPGSV,3,2,11,26,55,300,25,28,43,216,22,29,52,056,27,31,50,258,24*74
,1774433618410
NMEA,$GPGSV,3,3,11,04,04,312,,21,09,039,,27,01,255,*4F
,1774433618411
NMEA,$GLGSV,3,1,09,82,71,036,24,73,45,320,23,80,73,130,25,83,48,212,21*68
,1774433618411
NMEA,$GLGSV,3,2,09,81,22,036,26,74,00,000,,79,17,137,,65,04,012,*6F
,1774433618412
NMEA,$GLGSV,3,3,09,72,03,326,*5D
,1774433618413
NMEA,$GAGSV,1,1,0,*74
,1774433618414
NMEA,$PQGSV,1,1,0,*73
,1774433618414
NMEA,$PQGSV,3,1,09,08,23,067,19,11,23,224,16,12,78,209,22,24,64,175,25,0,4*65
,1774433618414
NMEA,$PQGSV,3,2,09,25,44,302,24,26,20,149,18,02,00,000,,05,16,119,,0,4*69
,1774433618414
NMEA,$PQGSV,3,3,09,23,00,000,,0,4*53
,1774433618414
NMEA,$GNGSA,A,3,18,25,26,28,29,31,,,,,,,1.6,1.3,1.0,1*3C
,1774433618416
NMEA,$GNGSA,A,2,80,82,,,,,,,,,,,1.6,1.3,1.0,2*35
,1774433618417
NMEA,$PQGSA,A,2,24,,,,,,,,,,,,1.6,1.3,1.0,4*3F
,1774433618417
NMEA,$GNVTG,,T,,M,0.0,N,0.0,K,A*3D
,1774433618417
NMEA,$GNRMC,101338.00,A,4503.897008,N,00739.448045,E,0.0,,250326,0.3,W,A*14
,1774433618418
NMEA,$GNGGA,101338.00,4503.897008,N,00739.448045,E,1,09,1.3,259.5,M,48.0,M,,*7E
,1774433618418
Fix,gps,45.064950,7.657467,307.511719,0.000000,9.648001,1774433619000
NMEA,$GPGSV,3,1,11,05,19,066,20,16,21,300,21,18,58,165,23,25,28,120,22*79
,1774433619412
NMEA,$GPGSV,3,2,11,26,55,300,25,28,43,216,21,29,52,056,26,31,50,258,26*74
,1774433619413
NMEA,$GPGSV,3,3,11,04,04,312,,21,09,039,,27,01,255,*4F
,1774433619414
NMEA,$GLGSV,3,1,09,82,71,036,24,73,45,320,23,80,73,130,25,83,48,212,22*6B
,1774433619414
NMEA,$GLGSV,3,2,09,81,22,036,26,74,00,000,,79,17,137,,65,04,012,*6F
,1774433619415
NMEA,$GLGSV,3,3,09,72,03,326,*5D
,1774433619415
NMEA,$GAGSV,1,1,0,*74
,1774433619416
NMEA,$PQGSV,1,1,0,*73
,1774433619417
NMEA,$PQGSV,3,1,09,08,23,067,17,11,23,224,13,12,78,209,23,24,64,175,24,0,4*6E
,1774433619419
NMEA,$PQGSV,3,2,09,25,44,302,24,26,20,149,17,02,00,000,,05,16,119,,0,4*66
,1774433619419
NMEA,$PQGSV,3,3,09,23,00,000,,0,4*53
,1774433619420
NMEA,$GNGSA,A,3,18,25,26,28,29,31,,,,,,,1.6,1.3,1.0,1*3C
,1774433619421
NMEA,$GNGSA,A,2,80,82,,,,,,,,,,,1.6,1.3,1.0,2*35
,1774433619422
NMEA,$PQGSA,A,2,24,,,,,,,,,,,,1.6,1.3,1.0,4*3F
,1774433619422
NMEA,$GNVTG,,T,,M,0.0,N,0.0,K,A*3D
,1774433619422
NMEA,$GNRMC,101339.00,A,4503.897009,N,00739.448043,E,0.0,,250326,0.3,W,A*12
,1774433619423
NMEA,$GNGGA,101339.00,4503.897009,N,00739.448043,E,1,09,1.3,259.5,M,48.0,M,,*78
,1774433619423
Fix,gps,45.064950,7.657467,307.514465,0.000000,9.648001,1774433620000
NMEA,$GPGSV,3,1,11,05,19,066,20,16,21,300,19,18,58,165,23,25,28,120,22*72
,1774433620412
NMEA,$GPGSV,3,2,11,26,55,300,25,28,43,216,21,29,52,056,26,31,50,258,26*74
,1774433620413
NMEA,$GPGSV,3,3,11,04,04,312,,21,09,039,,27,01,255,*4F
,1774433620414
NMEA,$GLGSV,3,1,09,82,71,036,24,73,45,320,22,80,73,130,25,83,48,212,22*6A
,1774433620414
NMEA,$GLGSV,3,2,09,81,22,036,25,74,00,000,,79,17,137,,65,04,012,*6C
,1774433620415
NMEA,$GLGSV,3,3,09,72,03,326,*5D
,1774433620415
NMEA,$GAGSV,1,1,0,*74
,1774433620416
NMEA,$PQGSV,1,1,0,*73
,1774433620416
NMEA,$PQGSV,3,1,09,08,23,067,18,11,23,224,13,12,78,209,23,24,64,175,24,0,4*61
,1774433620417
NMEA,$PQGSV,3,2,09,25,44,302,23,26,20,149,17,02,00,000,,05,16,119,,0,4*61
,1774433620417
NMEA,$PQGSV,3,3,09,23,00,000,,0,4*53
,1774433620417
NMEA,$GNGSA,A,3,18,25,26,28,29,31,,,,,,,1.6,1.3,1.0,1*3C
,1774433620419
NMEA,$GNGSA,A,2,80,82,,,,,,,,,,,1.6,1.3,1.0,2*35
,1774433620420
NMEA,$PQGSA,A,2,24,,,,,,,,,,,,1.6,1.3,1.0,4*3F
,1774433620420
NMEA,$GNVTG,,T,,M,0.0,N,0.0,K,A*3D
,1774433620420
NMEA,$GNRMC,101340.00,A,4503.897009,N,00739.448039,E,0.0,,250326,0.3,W,A*11
,1774433620420
NMEA,$GNGGA,101340.00,4503.897009,N,00739.448039,E,1,09,1.3,259.5,M,48.0,M,,*7B
,1774433620421
Fix,gps,45.064950,7.657467,307.515869,0.000000,9.648001,1774433621000
NMEA,$GPGSV,3,1,11,05,19,066,20,16,21,300,20,18,58,165,23,25,28,120,23*79
,1774433621410
NMEA,$GPGSV,3,2,11,26,55,300,25,28,43,216,23,29,52,056,26,31,50,258,25*75
,1774433621410
NMEA,$GPGSV,3,3,11,04,04,312,,21,09,039,,27,01,255,*4F
,1774433621410
NMEA,$GLGSV,3,1,09,82,71,036,25,73,45,320,24,80,73,130,25,83,48,212,22*6D
,1774433621411
NMEA,$GLGSV,3,2,09,81,22,036,25,74,00,000,,79,17,137,,65,04,012,*6C
,1774433621411
NMEA,$GLGSV,3,3,09,72,03,326,*5D
,1774433621411
NMEA,$GAGSV,1,1,0,*74
,1774433621412
NMEA,$PQGSV,1,1,0,*73
,1774433621412
NMEA,$PQGSV,3,1,09,08,23,067,20,11,23,224,13,12,78,209,23,24,64,175,24,0,4*6A
,1774433621412
NMEA,$PQGSV,3,2,09,25,44,302,24,26,20,149,16,02,00,000,,05,16,119,,0,4*67
,1774433621412
NMEA,$PQGSV,3,3,09,23,00,000,,0,4*53
,1774433621412
NMEA,$GNGSA,A,3,18,25,26,28,29,31,,,,,,,1.6,1.3,1.0,1*3C
,1774433621415
NMEA,$GNGSA,A,2,80,82,,,,,,,,,,,1.6,1.3,1.0,2*35
,1774433621415
NMEA,$PQGSA,A,2,24,,,,,,,,,,,,1.6,1.3,1.0,4*3F
,1774433621415
NMEA,$GNVTG,,T,,M,0.0,N,0.0,K,A*3D
,1774433621415
NMEA,$GNRMC,101341.00,A,4503.897009,N,00739.448034,E,0.0,,250326,0.3,W,A*1D
,1774433621415
NMEA,$GNGGA,101341.00,4503.897009,N,00739.448034,E,1,09,1.3,259.5,M,48.0,M,,*77
,1774433621416
Fix,gps,45.064950,7.657467,307.514587,0.000000,9.648001,1774433622000
NMEA,$GPGSV,3,1,11,05,19,066,22,16,21,300,20,18,58,165,23,25,28,120,20*78
,1774433622410
NMEA,$GPGSV,3,2,11,26,55,300,26,28,43,216,22,29,52,056,27,31,50,258,26*75
,1774433622411
NMEA,$GPGSV,3,3,11,04,04,312,,21,09,039,,27,01,255,*4F
,1774433622412
NMEA,$GLGSV,3,1,09,82,71,036,25,73,45,320,24,80,73,130,25,83,48,212,23*6C
,1774433622412
NMEA,$GLGSV,3,2,09,81,22,036,25,74,00,000,,79,17,137,,65,04,012,*6C
,1774433622412
NMEA,$GLGSV,3,3,09,72,03,326,*5D
,1774433622412
NMEA,$GAGSV,1,1,0,*74
,1774433622413
NMEA,$PQGSV,1,1,0,*73
,1774433622413
NMEA,$PQGSV,3,1,09,08,23,067,19,11,23,224,13,12,78,209,23,24,64,175,25,0,4*61
,1774433622414
NMEA,$PQGSV,3,2,09,25,44,302,23,26,20,149,19,02,00,000,,05,16,119,,0,4*6F
,1774433622415
NMEA,$PQGSV,3,3,09,23,00,000,,0,4*53
,1774433622415
NMEA,$GNGSA,A,3,18,25,26,28,29,31,,,,,,,1.6,1.3,1.0,1*3C
,1774433622417
NMEA,$GNGSA,A,2,80,82,,,,,,,,,,,1.6,1.3,1.0,2*35
,1774433622418
NMEA,$PQGSA,A,2,24,,,,,,,,,,,,1.6,1.3,1.0,4*3F
,1774433622418
NMEA,$GNVTG,,T,,M,0.0,N,0.0,K,A*3D
,1774433622418
NMEA,$GNRMC,101342.00,A,4503.897008,N,00739.448031,E,0.0,,250326,0.3,W,A*1A
,1774433622419
NMEA,$GNGGA,101342.00,4503.897008,N,00739.448031,E,1,09,1.3,259.5,M,48.0,M,,*70
,1774433622420
Fix,gps,45.064950,7.657467,307.512512,0.000000,9.648001,1774433623000
NMEA,$GPGSV,3,1,11,05,19,066,22,16,21,300,19,18,58,165,23,25,28,120,22*70
,1774433623410
NMEA,$GPGSV,3,2,11,26,55,300,25,28,43,216,23,29,52,056,27,31,50,258,25*74
,1774433623412
NMEA,$GPGSV,3,3,11,04,04,312,,21,09,039,,27,01,255,*4F
,1774433623412
NMEA,$GLGSV,3,1,09,82,71,036,25,73,45,320,23,80,73,130,25,83,48,212,23*6B
,1774433623412
NMEA,$GLGSV,3,2,09,81,22,036,26,74,00,000,,79,17,137,,65,04,012,*6F
,1774433623412
NMEA,$GLGSV,3,3,09,72,03,326,*5D
,1774433623413
NMEA,$GAGSV,1,1,0,*74
,1774433623413
NMEA,$PQGSV,1,1,0,*73
,1774433623413
