# 
# Header Description:
# 
# Version: v3.1.1.2 Platform: 8.1.0 Manufacturer: asus Model: ASUS_X00HD GNSS Hardware Model Name: 
# 
# Raw,utcTimeMillis,TimeNanos,LeapSecond,TimeUncertaintyNanos,FullBiasNanos,BiasNanos,BiasUncertaintyNanos,DriftNanosPerSecond,DriftUncertaintyNanosPerSecond,HardwareClockDiscontinuityCount,Svid,TimeOffsetNanos,State,ReceivedSvTimeNanos,ReceivedSvTimeUncertaintyNanos,Cn0DbHz,PseudorangeRateMetersPerSecond,PseudorangeRateUncertaintyMetersPerSecond,AccumulatedDeltaRangeState,AccumulatedDeltaRangeMeters,AccumulatedDeltaRangeUncertaintyMeters,CarrierFrequencyHz,CarrierCycles,CarrierPhase,CarrierPhaseUncertainty,MultipathIndicator,SnrInDb,ConstellationType,AgcDb,BasebandCn0DbHz,FullInterSignalBiasNanos,FullInterSignalBiasUncertaintyNanos,SatelliteInterSignalBiasNanos,SatelliteInterSignalBiasUncertaintyNanos,CodeType,ChipsetElapsedRealtimeNanos,IsFullTracking,SvPositionEcefXMeters,SvPositionEcefYMeters,SvPositionEcefZMeters,SvVelocityEcefXMetersPerSecond,SvVelocityEcefYMetersPerSecond,SvVelocityEcefZMetersPerSecond,SvClockBiasMeters,SvClockDriftMetersPerSecond,KlobucharAlpha0,KlobucharAlpha1,KlobucharAlpha2,KlobucharAlpha3,KlobucharBeta0,KlobucharBeta1,KlobucharBeta2,KlobucharBeta3
# 
# UncalAccel,utcTimeMillis,elapsedRealtimeNanos,UncalAccelXMps2,UncalAccelYMps2,UncalAccelZMps2,BiasXMps2,BiasYMps2,BiasZMps2,CalibrationAccuracy
# 
# Accel,utcTimeMillis,elapsedRealtimeNanos,AccelXMps2,AccelYMps2,AccelZMps2,CalibrationAccuracy
# 
# UncalGyro,utcTimeMillis,elapsedRealtimeNanos,UncalGyroXRadPerSec,UncalGyroYRadPerSec,UncalGyroZRadPerSec,DriftXRadPerSec,DriftYRadPerSec,DriftZRadPerSec,CalibrationAccuracy
# 
# Gyro,utcTimeMillis,elapsedRealtimeNanos,GyroXRadPerSec,GyroYRadPerSec,GyroZRadPerSec,CalibrationAccuracy
# 
# UncalMag,utcTimeMillis,elapsedRealtimeNanos,UncalMagXMicroT,UncalMagYMicroT,UncalMagZMicroT,BiasXMicroT,BiasYMicroT,BiasZMicroT,CalibrationAccuracy
# 
# Mag,utcTimeMillis,elapsedRealtimeNanos,MagXMicroT,MagYMicroT,MagZMicroT,CalibrationAccuracy
# 
# Pressure,utcTimeMillis,elapsedRealtimeNanos,PressureHpa,CalibrationAccuracy
# 
# OrientationDeg,utcTimeMillis,elapsedRealtimeNanos,yawDeg,rollDeg,pitchDeg,CalibrationAccuracy
# 
# Fix,Provider,LatitudeDegrees,LongitudeDegrees,AltitudeMeters,SpeedMps,AccuracyMeters,BearingDegrees,UnixTimeMillis,SpeedAccuracyMps,BearingAccuracyDegrees,elapsedRealtimeNanos,VerticalAccuracyMeters,MockLocation,NumberOfUsedSignals,VerticalSpeedAccuracyMps,SolutionType
# 
# Nav,Svid,Type,Status,MessageId,Sub-messageId,Data(Bytes)
# 
# Status,UnixTimeMillis,SignalCount,SignalIndex,ConstellationType,Svid,CarrierFrequencyHz,Cn0DbHz,AzimuthDegrees,ElevationDegrees,UsedInFix,HasAlmanacData,HasEphemerisData,BasebandCn0DbHz
# 
# Agc,utcTimeMillis,TimeNanos,LeapSecond,TimeUncertaintyNanos,FullBiasNanos,BiasNanos,BiasUncertaintyNanos,DriftNanosPerSecond,DriftUncertaintyNanosPerSecond,HardwareClockDiscontinuityCount,AgcDb,CarrierFrequencyHz,ConstellationType
# 
# GameRotationVector,utcTimeMillis,elapsedRealtimeNanos,x,y,z,w
# 
Status,,32,0,1,2,,15.30,243.0,10.0,0,1,0,
Status,,32,1,1,7,,17.10,317.0,9.0,0,1,0,
Status,,32,2,1,8,,18.20,293.0,28.0,1,1,1,
Status,,32,3,1,10,,25.60,149.0,43.0,1,1,1,
Status,,32,4,1,15,,16.60,52.0,7.0,0,1,0,
Status,,32,5,1,16,,20.60,210.0,68.0,1,1,1,
Status,,32,6,1,18,,19.30,53.0,35.0,1,1,1,
Status,,32,7,1,23,,23.20,88.0,51.0,1,1,1,
Status,,32,8,1,26,,17.50,178.0,38.0,1,1,1,
Status,,32,9,1,27,,25.90,305.0,61.0,1,1,1,
Status,,32,10,1,20,,0.00,30.0,2.0,0,1,0,
Status,,32,11,3,10,,16.90,262.0,58.0,0,1,0,
Status,,32,12,3,9,,16.90,195.0,32.0,0,1,0,
Status,,32,13,3,11,,14.00,326.0,25.0,0,1,0,
Status,,32,14,3,20,,19.60,296.0,61.0,0,1,0,
Status,,32,15,3,19,,21.80,43.0,43.0,1,1,1,
Status,,32,16,3,21,,16.80,260.0,20.0,0,1,0,
Status,,32,17,3,3,,17.30,36.0,18.0,0,1,0,
Status,,32,18,3,5,,0.00,130.0,2.0,0,1,0,
Status,,32,19,3,4,,0.00,87.0,21.0,0,1,0,
Status,,32,20,5,8,,17.20,36.0,30.0,0,1,0,
Status,,32,21,5,11,,22.80,324.0,75.0,1,1,1,
Status,,32,22,5,12,,18.40,67.0,37.0,1,1,1,
Status,,32,23,5,13,,18.60,47.0,37.0,1,1,1,
Status,,32,24,5,21,,16.30,99.0,25.0,0,1,1,
Status,,32,25,5,22,,18.20,46.0,17.0,1,1,1,
Status,,32,26,5,23,,12.70,278.0,40.0,0,1,0,
Status,,32,27,5,25,,13.80,213.0,33.0,0,1,0,
Status,,32,28,5,2,,0.00,97.0,2.0,0,1,0,
Status,,32,29,5,5,,0.00,118.0,17.0,0,1,0,
Status,,32,30,2,123,,28.50,0.0,0.0,0,0,0,
Status,,32,31,2,136,,30.90,0.0,0.0,0,0,0,
Fix,GPS,45.0646098700,7.6573509300,298.8338623046875,0.0,4.288,,1774443232000,0.29832867,,54436577506050,4.0,,,,
Fix,FLP,45.0646093000,7.6573503000,298.8338623046875,0.0,6.156,,1774443232000,,,54436577506050,4.0,,,,
Fix,NLP,45.0651012000,7.6570494000,301.3999938964844,,33.894,,1774443230631,,,54436745225633,2.0,,,,
Status,1774443232000,32,0,1,2,,15.30,243.0,10.0,0,1,0,
Status,1774443232000,32,1,1,7,,17.10,317.0,9.0,0,1,0,
Status,1774443232000,32,2,1,8,,17.30,293.0,28.0,1,1,1,
Status,1774443232000,32,3,1,10,,24.30,149.0,43.0,1,1,1,
Status,1774443232000,32,4,1,15,,16.60,52.0,7.0,0,1,0,
Status,1774443232000,32,5,1,16,,18.30,210.0,68.0,1,1,1,
Status,1774443232000,32,6,1,18,,18.30,53.0,35.0,1,1,1,
Status,1774443232000,32,7,1,23,,22.40,88.0,51.0,1,1,1,
Status,1774443232000,32,8,1,26,,17.50,178.0,38.0,1,1,1,
Status,1774443232000,32,9,1,27,,24.60,305.0,61.0,1,1,1,
Status,1774443232000,32,10,1,20,,0.00,30.0,2.0,0,1,0,
Status,1774443232000,32,11,3,10,,16.90,262.0,58.0,0,1,0,
Status,1774443232000,32,12,3,9,,16.90,195.0,32.0,0,1,0,
Status,1774443232000,32,13,3,11,,14.00,326.0,25.0,0,1,0,
Status,1774443232000,32,14,3,20,,19.00,296.0,61.0,0,1,0,
Status,1774443232000,32,15,3,19,,21.70,43.0,43.0,1,1,1,
Status,1774443232000,32,16,3,21,,16.80,260.0,20.0,0,1,0,
Status,1774443232000,32,17,3,3,,17.30,36.0,18.0,0,1,0,
Status,1774443232000,32,18,3,5,,0.00,130.0,2.0,0,1,0,
Status,1774443232000,32,19,3,4,,0.00,87.0,21.0,0,1,0,
Status,1774443232000,32,20,5,8,,17.20,36.0,30.0,0,1,0,
Status,1774443232000,32,21,5,11,,22.70,324.0,75.0,1,1,1,
Status,1774443232000,32,22,5,12,,18.40,67.0,37.0,1,1,1,
Status,1774443232000,32,23,5,13,,18.10,47.0,37.0,1,1,1,
Status,1774443232000,32,24,5,21,,16.30,99.0,25.0,0,1,1,
Status,1774443232000,32,25,5,22,,18.40,46.0,17.0,1,1,1,
Status,1774443232000,32,26,5,23,,17.10,278.0,40.0,0,1,0,
Status,1774443232000,32,27,5,25,,13.80,213.0,33.0,0,1,0,
Status,1774443232000,32,28,5,2,,0.00,97.0,2.0,0,1,0,
Status,1774443232000,32,29,5,5,,0.00,118.0,17.0,0,1,0,
Status,1774443232000,32,30,2,123,,28.50,0.0,0.0,0,0,0,
Status,1774443232000,32,31,2,136,,30.90,0.0,0.0,0,0,0,
Fix,GPS,45.0646104300,7.6573503600,298.70465087890625,0.0,4.288,,1774443233000,0.3182766,,54437590423549,4.0,,,,
Fix,FLP,45.0646096000,7.6573504000,298.70465087890625,0.0,6.155,,1774443233000,,,54437590423549,4.0,,,,
Status,1774443233000,32,0,1,2,,15.30,243.0,10.0,0,1,0,
Status,1774443233000,32,1,1,7,,17.10,317.0,9.0,0,1,0,
Status,1774443233000,32,2,1,8,,18.00,293.0,28.0,1,1,1,
Status,1774443233000,32,3,1,10,,25.40,149.0,43.0,1,1,1,
Status,1774443233000,32,4,1,15,,15.20,52.0,7.0,0,1,0,
Status,1774443233000,32,5,1,16,,18.30,210.0,68.0,1,1,1,
Status,1774443233000,32,6,1,18,,19.20,53.0,35.0,1,1,1,
Status,1774443233000,32,7,1,23,,24.50,88.0,51.0,1,1,1,
Status,1774443233000,32,8,1,26,,14.00,178.0,38.0,1,1,1,
Status,1774443233000,32,9,1,27,,24.40,305.0,61.0,1,1,1,
Status,1774443233000,32,10,1,20,,0.00,30.0,2.0,0,1,0,
Status,1774443233000,32,11,3,10,,16.10,262.0,58.0,0,1,0,
Status,1774443233000,32,12,3,9,,16.90,195.0,32.0,0,1,0,
Status,1774443233000,32,13,3,11,,14.70,326.0,25.0,0,1,0,
Status,1774443233000,32,14,3,20,,18.30,296.0,61.0,0,1,0,
Status,1774443233000,32,15,3,19,,21.40,43.0,43.0,1,1,1,
Status,1774443233000,32,16,3,21,,16.80,260.0,20.0,0,1,0,
Status,1774443233000,32,17,3,3,,17.30,36.0,18.0,0,1,0,
Status,1774443233000,32,18,3,5,,0.00,130.0,2.0,0,1,0,
Status,1774443233000,32,19,3,4,,0.00,87.0,21.0,0,1,0,
Status,1774443233000,32,20,5,8,,17.20,36.0,30.0,0,1,0,
Status,1774443233000,32,21,5,11,,20.50,324.0,75.0,1,1,1,
Status,1774443233000,32,22,5,12,,18.00,67.0,37.0,1,1,1,
Status,1774443233000,32,23,5,13,,18.10,47.0,37.0,1,1,1,
Status,1774443233000,32,24,5,21,,16.30,99.0,25.0,0,1,1,
Status,1774443233000,32,25,5,22,,19.10,46.0,17.0,1,1,1,
Status,1774443233000,32,26,5,23,,17.10,278.0,40.0,0,1,0,
Status,1774443233000,32,27,5,25,,13.80,213.0,33.0,0,1,0,
Status,1774443233000,32,28,5,2,,0.00,97.0,2.0,0,1,0,
Status,1774443233000,32,29,5,5,,0.00,118.0,17.0,0,1,0,
Status,1774443233000,32,30,2,123,,28.50,0.0,0.0,0,0,0,
Status,1774443233000,32,31,2,136,,30.90,0.0,0.0,0,0,0,
Fix,GPS,45.0646103400,7.6573503800,298.181396484375,0.0,4.288,,1774443234000,0.55317265,,54438577745164,4.0,,,,
Fix,FLP,45.0646098000,7.6573504000,298.181396484375,0.0,6.154,,1774443234000,,,54438577745164,4.0,,,,
Status,1774443234000,32,0,1,2,,15.00,243.0,10.0,0,1,0,
Status,1774443234000,32,1,1,7,,17.10,317.0,9.0,0,1,0,
Status,1774443234000,32,2,1,8,,20.90,293.0,28.0,1,1,1,
Status,1774443234000,32,3,1,10,,30.70,149.0,43.0,1,1,1,
Status,1774443234000,32,4,1,15,,16.70,52.0,7.0,0,1,0,
Status,1774443234000,32,5,1,16,,18.00,210.0,68.0,1,1,1,
Status,1774443234000,32,6,1,18,,18.60,53.0,35.0,1,1,1,
Status,1774443234000,32,7,1,23,,23.70,88.0,51.0,1,1,1,
Status,1774443234000,32,8,1,26,,26.00,178.0,38.0,1,1,1,
Status,1774443234000,32,9,1,27,,24.30,305.0,61.0,1,1,1,
Status,1774443234000,32,10,1,20,,0.00,30.0,2.0,0,1,0,
Status,1774443234000,32,11,3,10,,16.10,262.0,58.0,0,1,0,
Status,1774443234000,32,12,3,9,,20.50,195.0,32.0,0,1,0,
Status,1774443234000,32,13,3,11,,14.70,326.0,25.0,0,1,0,
Status,1774443234000,32,14,3,20,,18.30,296.0,61.0,0,1,0,
Status,1774443234000,32,15,3,19,,23.80,43.0,43.0,1,1,1,
Status,1774443234000,32,16,3,21,,16.80,260.0,20.0,0,1,0,
Status,1774443234000,32,17,3,3,,17.30,36.0,18.0,0,1,0,
Status,1774443234000,32,18,3,5,,0.00,130.0,2.0,0,1,0,
Status,1774443234000,32,19,3,4,,0.00,87.0,21.0,0,1,0,
Status,1774443234000,32,20,5,8,,17.20,36.0,30.0,0,1,0,
Status,1774443234000,32,21,5,11,,21.00,324.0,75.0,1,1,1,
Status,1774443234000,32,22,5,12,,20.10,67.0,37.0,1,1,1,
Status,1774443234000,32,23,5,13,,18.10,47.0,37.0,1,1,1,
Status,1774443234000,32,24,5,21,,16.30,99.0,25.0,0,1,1,
Status,1774443234000,32,25,5,22,,18.60,46.0,17.0,1,1,1,
Status,1774443234000,32,26,5,23,,17.10,278.0,40.0,0,1,0,
Status,1774443234000,32,27,5,25,,14.00,213.0,33.0,0,1,0,
Status,1774443234000,32,28,5,2,,0.00,97.0,2.0,0,1,0,
Status,1774443234000,32,29,5,5,,0.00,118.0,17.0,0,1,0,
Status,1774443234000,32,30,2,123,,28.50,0.0,0.0,0,0,0,
Status,1774443234000,32,31,2,136,,30.90,0.0,0.0,0,0,0,
Fix,GPS,45.0646102600,7.6573503800,297.76397705078125,0.0,3.216,,1774443235000,0.42544094,,54439578769226,4.0,,,,
Fix,FLP,45.0646099000,7.6573504000,297.76397705078125,0.0,6.153,,1774443235000,,,54439578769226,4.0,,,,
Status,1774443235000,32,0,1,2,,17.40,243.0,10.0,0,1,0,
Status,1774443235000,32,1,1,7,,17.10,317.0,9.0,0,1,0,
Status,1774443235000,32,2,1,8,,21.30,293.0,28.0,1,1,1,
Status,1774443235000,32,3,1,10,,32.20,149.0,43.0,1,1,1,
Status,1774443235000,32,4,1,15,,16.70,52.0,7.0,0,1,0,
Status,1774443235000,32,5,1,16,,18.00,210.0,68.0,1,1,1,
Status,1774443235000,32,6,1,18,,18.20,53.0,35.0,1,1,1,
Status,1774443235000,32,7,1,23,,24.20,88.0,51.0,1,1,1,
Status,1774443235000,32,8,1,26,,28.20,178.0,38.0,1,1,1,
Status,1774443235000,32,9,1,27,,23.60,305.0,61.0,1,1,1,
Status,1774443235000,32,10,1,20,,0.00,30.0,2.0,0,1,0,
Status,1774443235000,32,11,3,10,,16.10,262.0,58.0,0,1,0,
Status,1774443235000,32,12,3,9,,23.60,195.0,32.0,0,1,0,
Status,1774443235000,32,13,3,11,,14.70,326.0,25.0,0,1,0,
Status,1774443235000,32,14,3,20,,18.30,296.0,61.0,0,1,0,
Status,1774443235000,32,15,3,19,,24.10,43.0,43.0,1,1,1,
Status,1774443235000,32,16,3,21,,16.80,260.0,20.0,0,1,0,
Status,1774443235000,32,17,3,3,,17.30,36.0,18.0,0,1,0,
Status,1774443235000,32,18,3,5,,0.00,130.0,2.0,0,1,0,
Status,1774443235000,32,19,3,4,,0.00,87.0,21.0,0,1,0,
Status,1774443235000,32,20,5,8,,17.20,36.0,30.0,0,1,0,
Status,1774443235000,32,21,5,11,,22.00,324.0,75.0,1,1,1,
Status,1774443235000,32,22,5,12,,21.60,67.0,37.0,1,1,1,
Status,1774443235000,32,23,5,13,,15.90,47.0,37.0,1,1,1,
Status,1774443235000,32,24,5,21,,16.30,99.0,25.0,0,1,1,
Status,1774443235000,32,25,5,22,,17.90,46.0,17.0,1,1,1,
Status,1774443235000,32,26,5,23,,16.30,278.0,40.0,0,1,0,
Status,1774443235000,32,27,5,25,,23.60,213.0,33.0,0,1,0,
Status,1774443235000,32,28,5,2,,0.00,97.0,2.0,0,1,0,
Status,1774443235000,32,29,5,5,,0.00,118.0,17.0,0,1,0,
Status,1774443235000,32,30,2,123,,28.90,0.0,0.0,0,0,0,
Status,1774443235000,32,31,2,136,,30.90,0.0,0.0,0,0,0,
Fix,GPS,45.0646101100,7.6573503300,297.5299072265625,0.0,3.216,,1774443236000,0.29529646,,54440582689694,6.0,,,,
Fix,FLP,45.0646100000,7.6573504000,297.5299072265625,0.0,6.152,,1774443236000,,,54440582689694,6.0,,,,
Status,1774443236000,32,0,1,2,,17.40,243.0,10.0,0,1,0,
Status,1774443236000,32,1,1,7,,17.10,317.0,9.0,0,1,0,
Status,1774443236000,32,2,1,8,,18.70,293.0,28.0,1,1,1,
Status,1774443236000,32,3,1,10,,31.20,149.0,43.0,1,1,1,
Status,1774443236000,32,4,1,15,,16.70,52.0,7.0,0,1,0,
Status,1774443236000,32,5,1,16,,16.00,210.0,68.0,1,1,1,
Status,1774443236000,32,6,1,18,,19.30,53.0,35.0,1,1,1,
Status,1774443236000,32,7,1,23,,22.70,88.0,51.0,1,1,1,
Status,1774443236000,32,8,1,26,,27.30,178.0,38.0,1,1,1,
Status,1774443236000,32,9,1,27,,23.30,305.0,61.0,1,1,1,
Status,1774443236000,32,10,1,20,,0.00,30.0,2.0,0,1,0,
Status,1774443236000,32,11,3,10,,16.10,262.0,58.0,0,1,0,
Status,1774443236000,32,12,3,9,,20.90,195.0,32.0,0,1,0,
Status,1774443236000,32,13,3,11,,14.50,326.0,25.0,0,1,0,
Status,1774443236000,32,14,3,20,,18.30,296.0,61.0,0,1,0,
Status,1774443236000,32,15,3,19,,23.60,43.0,43.0,1,1,1,
Status,1774443236000,32,16,3,21,,16.80,260.0,20.0,0,1,0,
Status,1774443236000,32,17,3,3,,17.30,36.0,18.0,0,1,0,
Status,1774443236000,32,18,3,5,,0.00,130.0,2.0,0,1,0,
Status,1774443236000,32,19,3,4,,0.00,87.0,21.0,0,1,0,
Status,1774443236000,32,20,5,8,,17.20,36.0,30.0,0,1,0,
Status,1774443236000,32,21,5,11,,20.20,324.0,75.0,1,1,1,
Status,1774443236000,32,22,5,12,,21.40,67.0,37.0,1,1,1,
Status,1774443236000,32,23,5,13,,15.90,47.0,37.0,1,1,1,
Status,1774443236000,32,24,5,21,,16.30,99.0,25.0,0,1,1,
Status,1774443236000,32,25,5,22,,17.90,46.0,17.0,1,1,1,
Status,1774443236000,32,26,5,23,,16.30,278.0,40.0,0,1,0,
Status,1774443236000,32,27,5,25,,24.30,213.0,33.0,0,1,0,
Status,1774443236000,32,28,5,2,,0.00,97.0,2.0,0,1,0,
Status,1774443236000,32,29,5,5,,0.00,118.0,17.0,0,1,0,
Status,1774443236000,32,30,2,123,,28.90,0.0,0.0,0,0,0,
Status,1774443236000,32,31,2,136,,30.90,0.0,0.0,0,0,0,
Fix,GPS,45.0646100900,7.6573503300,297.310546875,0.0,3.216,,1774443237000,0.21954498,,54441581937715,6.0,,,,
Fix,FLP,45.0646100000,7.6573503000,297.310546875,0.0,6.152,,1774443237000,,,54441581937715,6.0,,,,
Status,1774443237000,32,0,1,2,,16.20,243.0,10.0,0,1,0,
Status,1774443237000,32,1,1,7,,17.10,317.0,9.0,0,1,0,
Status,1774443237000,32,2,1,8,,17.10,293.0,28.0,1,1,1,
Status,1774443237000,32,3,1,10,,30.50,149.0,43.0,1,1,1,
Status,1774443237000,32,4,1,15,,14.30,52.0,7.0,0,1,0,
Status,1774443237000,32,5,1,16,,16.00,210.0,68.0,1,1,1,
Status,1774443237000,32,6,1,18,,18.20,53.0,35.0,1,1,1,
Status,1774443237000,32,7,1,23,,22.30,88.0,51.0,1,1,1,
Status,1774443237000,32,8,1,26,,27.80,178.0,38.0,1,1,1,
Status,1774443237000,32,9,1,27,,22.50,305.0,61.0,1,1,1,
Status,1774443237000,32,10,1,20,,0.00,30.0,2.0,0,1,0,
Status,1774443237000,32,11,3,10,,16.10,262.0,58.0,0,1,0,
Status,1774443237000,32,12,3,9,,19.80,195.0,32.0,0,1,0,
Status,1774443237000,32,13,3,11,,14.50,326.0,25.0,0,1,0,
Status,1774443237000,32,14,3,20,,18.30,296.0,61.0,0,1,0,
Status,1774443237000,32,15,3,19,,23.40,43.0,43.0,1,1,1,
Status,1774443237000,32,16,3,21,,16.80,260.0,20.0,0,1,0,
Status,1774443237000,32,17,3,3,,17.30,36.0,18.0,0,1,0,
Status,1774443237000,32,18,3,5,,0.00,130.0,2.0,0,1,0,
Status,1774443237000,32,19,3,4,,0.00,87.0,21.0,0,1,0,
Status,1774443237000,32,20,5,8,,9.60,36.0,30.0,0,1,0,
Status,1774443237000,32,21,5,11,,20.80,324.0,75.0,1,1,1,
Status,1774443237000,32,22,5,12,,20.40,67.0,37.0,1,1,1,
Status,1774443237000,32,23,5,13,,15.90,47.0,37.0,1,1,1,
Status,1774443237000,32,24,5,21,,16.30,99.0,25.0,0,1,1,
Status,1774443237000,32,25,5,22,,16.50,46.0,17.0,1,1,1,
Status,1774443237000,32,26,5,23,,17.50,278.0,40.0,0,1,0,
Status,1774443237000,32,27,5,25,,24.00,213.0,33.0,0,1,0,
Status,1774443237000,32,28,5,2,,0.00,97.0,2.0,0,1,0,
Status,1774443237000,32,29,5,5,,0.00,118.0,17.0,0,1,0,
Status,1774443237000,32,30,2,123,,28.90,0.0,0.0,0,0,0,
Status,1774443237000,32,31,2,136,,30.90,0.0,0.0,0,0,0,
Fix,GPS,45.0646100900,7.6573503200,297.21136474609375,0.0,3.216,,1774443238000,0.34,,54442582916568,6.0,,,,
Fix,FLP,45.0646100000,7.6573503000,297.21136474609375,0.0,6.152,,1774443238000,,,54442582916568,6.0,,,,
Fix,NLP,45.0651932000,7.6570244000,301.3999938964844,,34.352,,1774443238361,,,54442603922662,10.5,,,,
Status,1774443238000,32,0,1,2,,16.90,243.0,10.0,0,1,0,
Status,1774443238000,32,1,1,7,,17.10,317.0,9.0,0,1,0,
Status,1774443238000,32,2,1,8,,17.80,293.0,28.0,1,1,1,
Status,1774443238000,32,3,1,10,,31.20,149.0,43.0,1,1,1,
Status,1774443238000,32,4,1,15,,14.30,52.0,7.0,0,1,0,
Status,1774443238000,32,5,1,16,,16.00,210.0,68.0,1,1,1,
Status,1774443238000,32,6,1,18,,18.00,53.0,35.0,1,1,1,
Status,1774443238000,32,7,1,23,,22.50,88.0,51.0,1,1,1,
Status,1774443238000,32,8,1,26,,27.40,178.0,38.0,1,1,1,
Status,1774443238000,32,9,1,27,,22.50,305.0,61.0,1,1,1,
Status,1774443238000,32,10,1,20,,0.00,30.0,2.0,0,1,0,
Status,1774443238000,32,11,3,10,,12.50,262.0,58.0,0,1,0,
Status,1774443238000,32,12,3,9,,22.90,195.0,32.0,0,1,0,
Status,1774443238000,32,13,3,11,,14.50,326.0,25.0,0,1,0,
Status,1774443238000,32,14,3,20,,18.30,296.0,61.0,0,1,0,
Status,1774443238000,32,15,3,19,,22.00,43.0,43.0,1,1,1,
Status,1774443238000,32,16,3,21,,11.00,260.0,20.0,0,1,0,
Status,1774443238000,32,17,3,3,,17.30,36.0,18.0,0,1,0,
Status,1774443238000,32,18,3,5,,0.00,130.0,2.0,0,1,0,
Status,1774443238000,32,19,3,4,,0.00,87.0,21.0,0,1,0,
Status,1774443238000,32,20,5,8,,9.60,36.0,30.0,0,1,0,
Status,1774443238000,32,21,5,11,,20.70,324.0,75.0,1,1,1,
Status,1774443238000,32,22,5,12,,19.60,67.0,37.0,1,1,1,
Status,1774443238000,32,23,5,13,,15.20,47.0,37.0,1,1,1,
Status,1774443238000,32,24,5,21,,16.30,99.0,25.0,0,1,1,
Status,1774443238000,32,25,5,22,,17.70,46.0,17.0,1,1,1,
Status,1774443238000,32,26,5,23,,18.30,278.0,40.0,0,1,0,
Status,1774443238000,32,27,5,25,,24.70,213.0,33.0,0,1,0,
Status,1774443238000,32,28,5,2,,0.00,97.0,2.0,0,1,0,
Status,1774443238000,32,29,5,5,,0.00,118.0,17.0,0,1,0,
Status,1774443238000,32,30,2,123,,28.90,0.0,0.0,0,0,0,
Status,1774443238000,32,31,2,136,,30.90,0.0,0.0,0,0,0,
Fix,GPS,45.0646110000,7.6573493800,297.3082275390625,0.0,3.216,,1774443239000,0.21095023,,54443583604901,6.0,,,,
Fix,FLP,45.0646103000,7.6573501000,297.3082275390625,0.0,6.151,,1774443239000,,,54443583604901,6.0,,,,
Status,1774443239000,32,0,1,2,,19.00,243.0,10.0,0,1,0,
Status,1774443239000,32,1,1,7,,17.10,317.0,9.0,0,1,0,
Status,1774443239000,32,2,1,8,,17.80,293.0,28.0,1,1,1,
Status,1774443239000,32,3,1,10,,32.00,149.0,43.0,1,1,1,
Status,1774443239000,32,4,1,15,,14.30,52.0,7.0,0,1,0,
Status,1774443239000,32,5,1,16,,16.00,210.0,68.0,1,1,1,
Status,1774443239000,32,6,1,18,,16.70,53.0,35.0,1,1,1,
Status,1774443239000,32,7,1,23,,22.30,88.0,51.0,1,1,1,
Status,1774443239000,32,8,1,26,,27.90,178.0,38.0,1,1,1,
Status,1774443239000,32,9,1,27,,22.90,305.0,61.0,1,1,1,
Status,1774443239000,32,10,1,20,,0.00,30.0,2.0,0,1,0,
Status,1774443239000,32,11,3,10,,12.50,262.0,58.0,0,1,0,
Status,1774443239000,32,12,3,9,,22.30,195.0,32.0,0,1,0,
Status,1774443239000,32,13,3,11,,14.80,326.0,25.0,0,1,0,
Status,1774443239000,32,14,3,20,,18.30,296.0,61.0,0,1,0,
Status,1774443239000,32,15,3,19,,23.50,43.0,43.0,1,1,1,
Status,1774443239000,32,16,3,21,,11.00,260.0,20.0,0,1,0,
Status,1774443239000,32,17,3,3,,17.30,36.0,18.0,0,1,0,
Status,1774443239000,32,18,3,5,,0.00,130.0,2.0,0,1,0,
Status,1774443239000,32,19,3,4,,0.00,87.0,21.0,0,1,0,
Status,1774443239000,32,20,5,8,,9.60,36.0,30.0,0,1,0,
Status,1774443239000,32,21,5,11,,20.60,324.0,75.0,1,1,1,
Status,1774443239000,32,22,5,12,,20.10,67.0,37.0,1,1,1,
Status,1774443239000,32,23,5,13,,18.30,47.0,37.0,1,1,1,
Status,1774443239000,32,24,5,21,,16.30,99.0,25.0,0,1,1,
Status,1774443239000,32,25,5,22,,18.20,46.0,17.0,1,1,1,
Status,1774443239000,32,26,5,23,,18.80,278.0,40.0,0,1,0,
Status,1774443239000,32,27,5,25,,23.60,213.0,33.0,0,1,0,
Status,1774443239000,32,28,5,2,,0.00,97.0,2.0,0,1,0,
Status,1774443239000,32,29,5,5,,0.00,118.0,17.0,0,1,0,
Status,1774443239000,32,30,2,123,,28.90,0.0,0.0,0,0,0,
Status,1774443239000,32,31,2,136,,30.90,0.0,0.0,0,0,0,
Fix,GPS,45.0646109900,7.6573493900,297.20648193359375,0.0,3.216,,1774443240000,0.15,,54444578183130,6.0,,,,
Fix,FLP,45.0646105000,7.6573499000,297.20648193359375,0.0,6.151,,1774443240000,,,54444578183130,6.0,,,,
Status,1774443240000,32,0,1,2,,19.90,243.0,10.0,0,1,0,
Status,1774443240000,32,1,1,7,,17.10,317.0,9.0,0,1,0,
Status,1774443240000,32,2,1,8,,19.10,293.0,28.0,1,1,1,
Status,1774443240000,32,3,1,10,,31.00,149.0,43.0,1,1,1,
Status,1774443240000,32,4,1,15,,14.30,52.0,7.0,0,1,0,
Status,1774443240000,32,5,1,16,,16.00,210.0,68.0,1,1,1,
Status,1774443240000,32,6,1,18,,17.80,53.0,35.0,1,1,1,
Status,1774443240000,32,7,1,23,,21.70,88.0,51.0,1,1,1,
Status,1774443240000,32,8,1,26,,27.70,178.0,38.0,1,1,1,
Status,1774443240000,32,9,1,27,,22.80,305.0,61.0,1,1,1,
Status,1774443240000,32,10,1,20,,0.00,30.0,2.0,0,1,0,
Status,1774443240000,32,11,3,10,,12.50,262.0,58.0,0,1,0,
Status,1774443240000,32,12,3,9,,21.50,195.0,32.0,0,1,0,
Status,1774443240000,32,13,3,11,,14.80,326.0,25.0,0,1,0,
Status,1774443240000,32,14,3,20,,18.30,296.0,61.0,0,1,0,
Status,1774443240000,32,15,3,19,,22.30,43.0,43.0,1,1,1,
Status,1774443240000,32,16,3,21,,11.00,260.0,20.0,0,1,0,
Status,1774443240000,32,17,3,3,,17.30,36.0,18.0,0,1,0,
Status,1774443240000,32,18,3,5,,0.00,130.0,2.0,0,1,0,
Status,1774443240000,32,19,3,4,,0.00,87.0,21.0,0,1,0,
Status,1774443240000,32,20,5,8,,9.60,36.0,30.0,0,1,0,
Status,1774443240000,32,21,5,11,,18.80,324.0,75.0,1,1,1,
Status,1774443240000,32,22,5,12,,19.90,67.0,37.0,1,1,1,
Status,1774443240000,32,23,5,13,,18.30,47.0,37.0,1,1,1,
Status,1774443240000,32,24,5,21,,16.30,99.0,25.0,0,1,1,
Status,1774443240000,32,25,5,22,,18.20,46.0,17.0,1,1,1,
Status,1774443240000,32,26,5,23,,18.80,278.0,40.0,0,1,0,
Status,1774443240000,32,27,5,25,,23.80,213.0,33.0,0,1,0,
Status,1774443240000,32,28,5,2,,0.00,97.0,2.0,0,1,0,
Status,1774443240000,32,29,5,5,,0.00,118.0,17.0,0,1,0,
Status,1774443240000,32,30,2,123,,28.90,0.0,0.0,0,0,0,
Status,1774443240000,32,31,2,136,,30.90,0.0,0.0,0,0,0,
Fix,GPS,45.0646109700,7.6573494400,297.1650390625,0.0,3.216,,1774443241000,0.34885526,,54445576043911,6.0,,,,
Fix,FLP,45.0646106000,7.6573498000,297.1650390625,0.0,6.151,,1774443241000,,,54445576043911,6.0,,,,
Status,1774443241000,32,0,1,2,,19.40,243.0,10.0,0,1,0,
Status,1774443241000,32,1,1,7,,17.10,317.0,9.0,0,1,0,
Status,1774443241000,32,2,1,8,,18.70,293.0,28.0,1,1,1,
Status,1774443241000,32,3,1,10,,31.00,149.0,43.0,1,1,1,
Status,1774443241000,32,4,1,15,,14.30,52.0,7.0,0,1,0,
Status,1774443241000,32,5,1,16,,16.00,210.0,68.0,1,1,1,
Status,1774443241000,32,6,1,18,,18.00,53.0,35.0,1,1,1,
Status,1774443241000,32,7,1,23,,22.40,88.0,51.0,1,1,1,
Status,1774443241000,32,8,1,26,,27.90,178.0,38.0,1,1,1,
Status,1774443241000,32,9,1,27,,23.60,305.0,61.0,1,1,1,
Status,1774443241000,32,10,1,20,,0.00,30.0,2.0,0,1,0,
Status,1774443241000,32,11,3,10,,12.50,262.0,58.0,0,1,0,
Status,1774443241000,32,12,3,9,,21.40,195.0,32.0,0,1,0,
Status,1774443241000,32,13,3,11,,15.60,326.0,25.0,0,1,0,
Status,1774443241000,32,14,3,20,,18.30,296.0,61.0,0,1,0,
Status,1774443241000,32,15,3,19,,22.40,43.0,43.0,1,1,1,
Status,1774443241000,32,16,3,21,,11.00,260.0,20.0,0,1,0,
Status,1774443241000,32,17,3,3,,17.30,36.0,18.0,0,1,0,
Status,1774443241000,32,18,3,5,,0.00,130.0,2.0,0,1,0,
Status,1774443241000,32,19,3,4,,0.00,87.0,21.0,0,1,0,
Status,1774443241000,32,20,5,8,,9.60,36.0,30.0,0,1,0,
Status,1774443241000,32,21,5,11,,20.70,324.0,75.0,1,1,1,
Status,1774443241000,32,22,5,12,,19.90,67.0,37.0,1,1,1,
Status,1774443241000,32,23,5,13,,15.80,47.0,37.0,1,1,1,
Status,1774443241000,32,24,5,21,,16.30,99.0,25.0,0,1,1,
Status,1774443241000,32,25,5,22,,16.00,46.0,17.0,1,1,1,
Status,1774443241000,32,26,5,23,,18.30,278.0,40.0,0,1,0,
Status,1774443241000,32,27,5,25,,22.80,213.0,33.0,0,1,0,
Status,1774443241000,32,28,5,2,,0.00,97.0,2.0,0,1,0,
Status,1774443241000,32,29,5,5,,0.00,118.0,17.0,0,1,0,
Status,1774443241000,32,30,2,123,,28.90,0.0,0.0,0,0,0,
Status,1774443241000,32,31,2,136,,30.90,0.0,0.0,0,0,0,
Fix,GPS,45.0646109700,7.6573494900,297.118896484375,0.0,3.216,,1774443242000,0.22825424,,54446579589640,6.0,,,,
Fix,FLP,45.0646107000,7.6573497000,297.118896484375,0.0,6.151,,1774443242000,,,54446579589640,6.0,,,,
Fix,NLP,45.0651932000,7.6570244000,301.3999938964844,,34.352,,1774443238361,,,54446732293390,10.5,,,,
Status,1774443242000,32,0,1,2,,18.70,243.0,10.0,0,1,0,
Status,1774443242000,32,1,1,7,,10.20,317.0,9.0,0,1,0,
Status,1774443242000,32,2,1,8,,17.90,293.0,28.0,1,1,1,
Status,1774443242000,32,3,1,10,,31.60,149.0,43.0,1,1,1,
Status,1774443242000,32,4,1,15,,14.30,52.0,7.0,0,1,0,
Status,1774443242000,32,5,1,16,,15.00,210.0,68.0,1,1,1,
Status,1774443242000,32,6,1,18,,17.20,53.0,35.0,1,1,1,
Status,1774443242000,32,7,1,23,,23.00,88.0,51.0,1,1,1,
Status,1774443242000,32,8,1,26,,28.80,178.0,38.0,1,1,1,
Status,1774443242000,32,9,1,27,,23.90,305.0,61.0,1,1,1,
Status,1774443242000,32,10,1,20,,0.00,30.0,2.0,0,1,0,
Status,1774443242000,32,11,3,10,,12.50,262.0,58.0,0,1,0,
Status,1774443242000,32,12,3,9,,22.20,195.0,32.0,0,1,0,
Status,1774443242000,32,13,3,11,,17.80,326.0,25.0,0,1,0,
Status,1774443242000,32,14,3,20,,18.30,296.0,61.0,0,1,0,
Status,1774443242000,32,15,3,19,,24.00,43.0,43.0,1,1,1,
Status,1774443242000,32,16,3,21,,11.00,260.0,20.0,0,1,0,
Status,1774443242000,32,17,3,3,,17.30,36.0,18.0,0,1,0,
Status,1774443242000,32,18,3,5,,0.00,130.0,2.0,0,1,0,
Status,1774443242000,32,19,3,4,,0.00,87.0,21.0,0,1,0,
Status,1774443242000,32,20,5,8,,9.60,36.0,30.0,0,1,0,
Status,1774443242000,32,21,5,11,,20.30,324.0,75.0,1,1,1,
Status,1774443242000,32,22,5,12,,20.70,67.0,37.0,1,1,1,
Status,1774443242000,32,23,5,13,,15.80,47.0,37.0,1,1,1,
Status,1774443242000,32,24,5,21,,16.30,99.0,25.0,0,1,1,
Status,1774443242000,32,25,5,22,,16.00,46.0,17.0,1,1,1,
Status,1774443242000,32,26,5,23,,22.10,278.0,40.0,0,1,0,
Status,1774443242000,32,27,5,25,,24.30,213.0,33.0,0,1,0,
Status,1774443242000,32,28,5,2,,0.00,97.0,2.0,0,1,0,
Status,1774443242000,32,29,5,5,,0.00,118.0,17.0,0,1,0,
Status,1774443242000,32,30,2,123,,28.50,0.0,0.0,0,0,0,
Status,1774443242000,32,31,2,136,,30.90,0.0,0.0,0,0,0,
Fix,GPS,45.0646109700,7.6573495500,297.07952880859375,0.0,3.216,,1774443243000,0.32649654,,54447579080421,6.0,,,,
Fix,FLP,45.0646108000,7.6573497000,297.07952880859375,0.0,6.151,,1774443243000,,,54447579080421,6.0,,,,
Status,1774443243000,32,0,1,2,,18.00,243.0,10.0,0,1,0,
Status,1774443243000,32,1,1,7,,10.20,317.0,9.0,0,1,0,
Status,1774443243000,32,2,1,8,,18.10,293.0,28.0,1,1,1,
Status,1774443243000,32,3,1,10,,30.90,149.0,43.0,1,1,1,
Status,1774443243000,32,4,1,15,,14.30,52.0,7.0,0,1,0,
Status,1774443243000,32,5,1,16,,15.00,210.0,68.0,1,1,1,
Status,1774443243000,32,6,1,18,,20.10,53.0,35.0,1,1,1,
Status,1774443243000,32,7,1,23,,22.10,88.0,51.0,1,1,1,
Status,1774443243000,32,8,1,26,,28.50,178.0,38.0,1,1,1,
Status,1774443243000,32,9,1,27,,23.20,305.0,61.0,1,1,1,
Status,1774443243000,32,10,1,20,,0.00,30.0,2.0,0,1,0,
Status,1774443243000,32,11,3,10,,12.50,262.0,58.0,0,1,0,
Status,1774443243000,32,12,3,9,,20.30,195.0,32.0,0,1,0,
Status,1774443243000,32,13,3,11,,18.40,326.0,25.0,0,1,0,
Status,1774443243000,32,14,3,20,,18.30,296.0,61.0,0,1,0,
Status,1774443243000,32,15,3,19,,22.30,43.0,43.0,1,1,1,
Status,1774443243000,32,16,3,21,,11.00,260.0,20.0,0,1,0,
Status,1774443243000,32,17,3,3,,17.30,36.0,18.0,0,1,0,
Status,1774443243000,32,18,3,5,,0.00,130.0,2.0,0,1,0,
Status,1774443243000,32,19,3,4,,0.00,87.0,21.0,0,1,0,
Status,1774443243000,32,20,5,8,,9.60,36.0,30.0,0,1,0,
Status,1774443243000,32,21,5,11,,19.90,324.0,75.0,1,1,1,
Status,1774443243000,32,22,5,12,,20.00,67.0,37.0,1,1,1,
Status,1774443243000,32,23,5,13,,15.80,47.0,37.0,1,1,1,
Status,1774443243000,32,24,5,21,,16.30,99.0,25.0,0,1,1,
Status,1774443243000,32,25,5,22,,16.00,46.0,17.0,1,1,1,
Status,1774443243000,32,26,5,23,,20.10,278.0,40.0,0,1,0,
Status,1774443243000,32,27,5,25,,23.30,213.0,33.0,0,1,0,
Status,1774443243000,32,28,5,2,,0.00,97.0,2.0,0,1,0,
Status,1774443243000,32,29,5,5,,0.00,118.0,17.0,0,1,0,
Status,1774443243000,32,30,2,123,,28.50,0.0,0.0,0,0,0,
Status,1774443243000,32,31,2,136,,30.90,0.0,0.0,0,0,0,
Fix,GPS,45.0646109700,7.6573496300,297.0687255859375,0.0,3.216,,1774443244000,0.34885526,,54448576867608,6.0,,,,
Fix,FLP,45.0646109000,7.6573496000,297.0687255859375,0.0,6.151,,1774443244000,,,54448576867608,6.0,,,,
Status,1774443244000,32,0,1,2,,19.70,243.0,10.0,0,1,0,
Status,1774443244000,32,1,1,7,,10.20,317.0,9.0,0,1,0,
Status,1774443244000,32,2,1,8,,17.60,293.0,28.0,1,1,1,
Status,1774443244000,32,3,1,10,,30.30,149.0,43.0,1,1,1,
Status,1774443244000,32,4,1,15,,14.30,52.0,7.0,0,1,0,
Status,1774443244000,32,5,1,16,,16.80,210.0,68.0,1,1,1,
Status,1774443244000,32,6,1,18,,18.00,53.0,35.0,1,1,1,
Status,1774443244000,32,7,1,23,,21.40,88.0,51.0,1,1,1,
Status,1774443244000,32,8,1,26,,28.00,178.0,38.0,1,1,1,
Status,1774443244000,32,9,1,27,,22.50,305.0,61.0,1,1,1,
Status,1774443244000,32,10,1,20,,0.00,30.0,2.0,0,1,0,
Status,1774443244000,32,11,3,10,,12.50,262.0,58.0,0,1,0,
Status,1774443244000,32,12,3,9,,20.00,195.0,32.0,0,1,0,
Status,1774443244000,32,13,3,11,,18.40,326.0,25.0,0,1,0,
Status,1774443244000,32,14,3,20,,18.30,296.0,61.0,0,1,0,
Status,1774443244000,32,15,3,19,,23.40,43.0,43.0,1,1,1,
Status,1774443244000,32,16,3,21,,11.00,260.0,20.0,0,1,0,
Status,1774443244000,32,17,3,3,,17.30,36.0,18.0,0,1,0,
Status,1774443244000,32,18,3,5,,0.00,130.0,2.0,0,1,0,
Status,1774443244000,32,19,3,4,,0.00,87.0,21.0,0,1,0,
Status,1774443244000,32,20,5,8,,9.60,36.0,30.0,0,1,0,
Status,1774443244000,32,21,5,11,,20.90,324.0,75.0,1,1,1,
Status,1774443244000,32,22,5,12,,19.80,67.0,37.0,1,1,1,
Status,1774443244000,32,23,5,13,,15.80,47.0,37.0,1,1,1,
Status,1774443244000,32,24,5,22,,16.00,46.0,17.0,1,1,1,
Status,1774443244000,32,25,5,23,,20.20,278.0,40.0,0,1,0,
Status,1774443244000,32,26,5,25,,24.30,213.0,33.0,0,1,0,
Status,1774443244000,32,27,5,2,,0.00,97.0,2.0,0,1,0,
Status,1774443244000,32,28,5,5,,0.00,118.0,17.0,0,1,0,
Status,1774443244000,32,29,5,21,,0.00,99.0,25.0,0,1,1,
Status,1774443244000,32,30,2,123,,28.50,0.0,0.0,0,0,0,
Status,1774443244000,32,31,2,136,,30.90,0.0,0.0,0,0,0,
Fix,GPS,45.0646109700,7.6573496500,297.015625,0.0,3.216,,1774443245000,0.23323807,,54449580536618,6.0,,,,
Fix,FLP,45.0646109000,7.6573497000,297.015625,0.0,6.151,,1774443245000,,,54449580536618,6.0,,,,
Status,1774443245000,32,0,1,2,,17.50,243.0,10.0,0,1,0,
Status,1774443245000,32,1,1,7,,10.20,317.0,9.0,0,1,0,
Status,1774443245000,32,2,1,8,,18.40,293.0,28.0,1,1,1,
Status,1774443245000,32,3,1,10,,30.30,149.0,43.0,1,1,1,
Status,1774443245000,32,4,1,15,,14.30,52.0,7.0,0,1,0,
Status,1774443245000,32,5,1,16,,16.80,210.0,68.0,1,1,1,
Status,1774443245000,32,6,1,18,,18.30,53.0,35.0,1,1,1,
Status,1774443245000,32,7,1,23,,22.30,88.0,51.0,1,1,1,
Status,1774443245000,32,8,1,26,,27.60,178.0,38.0,1,1,1,
Status,1774443245000,32,9,1,27,,22.10,305.0,61.0,1,1,1,
Status,1774443245000,32,10,1,20,,0.00,30.0,2.0,0,1,0,
Status,1774443245000,32,11,3,10,,12.50,262.0,58.0,0,1,0,
Status,1774443245000,32,12,3,9,,19.60,195.0,32.0,0,1,0,
Status,1774443245000,32,13,3,11,,15.00,326.0,25.0,0,1,0,
Status,1774443245000,32,14,3,20,,10.90,296.0,61.0,0,1,0,
Status,1774443245000,32,15,3,19,,22.90,43.0,43.0,1,1,1,
Status,1774443245000,32,16,3,21,,11.00,260.0,20.0,0,1,0,
Status,1774443245000,32,17,3,3,,17.30,36.0,18.0,0,1,0,
Status,1774443245000,32,18,3,5,,0.00,130.0,2.0,0,1,0,
Status,1774443245000,32,19,3,4,,0.00,87.0,21.0,0,1,0,
Status,1774443245000,32,20,5,8,,9.60,36.0,30.0,0,1,0,
Status,1774443245000,32,21,5,11,,20.30,324.0,75.0,1,1,1,
Status,1774443245000,32,22,5,12,,20.30,67.0,37.0,1,1,1,
Status,1774443245000,32,23,5,13,,15.10,47.0,37.0,1,1,1,
Status,1774443245000,32,24,5,22,,13.40,46.0,17.0,1,1,1,
Status,1774443245000,32,25,5,23,,19.00,278.0,40.0,0,1,0,
Status,1774443245000,32,26,5,25,,24.20,213.0,33.0,0,1,0,
Status,1774443245000,32,27,5,2,,0.00,97.0,2.0,0,1,0,
Status,1774443245000,32,28,5,5,,0.00,118.0,17.0,0,1,0,
Status,1774443245000,32,29,5,21,,0.00,99.0,25.0,0,1,1,
Status,1774443245000,32,30,2,123,,28.50,0.0,0.0,0,0,0,
Status,1774443245000,32,31,2,136,,30.90,0.0,0.0,0,0,0,
Fix,GPS,45.0646106500,7.6573596300,297.64215087890625,0.34,3.216,88.3,1774443246000,0.97800815,1.401593,54450580321722,6.0,,,,
Fix,FLP,45.0646108000,7.6573524000,297.64215087890625,0.34,6.158,88.0,1774443246000,,,54450580321722,6.0,,,,
Status,1774443246000,32,0,1,2,,19.30,243.0,10.0,0,1,0,
Status,1774443246000,32,1,1,7,,10.20,317.0,9.0,0,1,0,
Status,1774443246000,32,2,1,8,,18.60,293.0,28.0,1,1,1,
Status,1774443246000,32,3,1,10,,30.60,149.0,43.0,1,1,1,
Status,1774443246000,32,4,1,15,,14.30,52.0,7.0,0,1,0,
Status,1774443246000,32,5,1,16,,16.80,210.0,68.0,1,1,1,
Status,1774443246000,32,6,1,18,,19.10,53.0,35.0,1,1,1,
Status,1774443246000,32,7,1,23,,23.10,88.0,51.0,1,1,1,
Status,1774443246000,32,8,1,26,,27.90,178.0,38.0,1,1,1,
Status,1774443246000,32,9,1,27,,21.90,305.0,61.0,1,1,1,
Status,1774443246000,32,10,1,20,,0.00,30.0,2.0,0,1,0,
Status,1774443246000,32,11,3,10,,12.50,262.0,58.0,0,1,0,
Status,1774443246000,32,12,3,9,,18.40,195.0,32.0,0,1,0,
Status,1774443246000,32,13,3,11,,15.00,326.0,25.0,0,1,0,
Status,1774443246000,32,14,3,20,,10.90,296.0,61.0,0,1,0,
Status,1774443246000,32,15,3,19,,22.60,43.0,43.0,1,1,1,
Status,1774443246000,32,16,3,21,,11.00,260.0,20.0,0,1,0,
Status,1774443246000,32,17,3,3,,17.30,36.0,18.0,0,1,0,
Status,1774443246000,32,18,3,5,,0.00,130.0,2.0,0,1,0,
Status,1774443246000,32,19,3,4,,0.00,87.0,21.0,0,1,0,
Status,1774443246000,32,20,5,8,,9.60,36.0,30.0,0,1,0,
Status,1774443246000,32,21,5,11,,20.60,324.0,75.0,1,1,1,
Status,1774443246000,32,22,5,12,,20.50,67.0,37.0,1,1,1,
Status,1774443246000,32,23,5,13,,18.10,47.0,37.0,1,1,1,
Status,1774443246000,32,24,5,22,,13.40,46.0,17.0,1,1,1,
Status,1774443246000,32,25,5,23,,19.00,278.0,40.0,0,1,0,
Status,1774443246000,32,26,5,25,,23.60,213.0,33.0,0,1,0,
Status,1774443246000,32,27,5,2,,0.00,97.0,2.0,0,1,0,
Status,1774443246000,32,28,5,5,,0.00,118.0,17.0,0,1,0,
Status,1774443246000,32,29,5,21,,0.00,99.0,25.0,0,1,1,
Status,1774443246000,32,30,2,123,,28.50,0.0,0.0,0,0,0,
Status,1774443246000,32,31,2,136,,30.90,0.0,0.0,0,0,0,
Fix,GPS,45.0646197200,7.6573694900,297.878662109375,0.0,3.216,,1774443247000,0.2641969,,54451581272919,6.0,,,,
Fix,FLP,45.0646133000,7.6573571000,297.878662109375,0.0,6.156,,1774443247000,,,54451581272919,6.0,,,,
Fix,NLP,45.0651932000,7.6570244000,301.3999938964844,,34.352,,1774443248349,,,54452568546721,10.5,,,,
Status,1774443247000,32,0,1,2,,19.20,243.0,10.0,0,1,0,
Status,1774443247000,32,1,1,7,,10.20,317.0,9.0,0,1,0,
Status,1774443247000,32,2,1,8,,20.10,293.0,28.0,1,1,1,
Status,1774443247000,32,3,1,10,,30.70,149.0,43.0,1,1,1,
Status,1774443247000,32,4,1,15,,14.30,52.0,7.0,0,1,0,
Status,1774443247000,32,5,1,16,,16.40,210.0,68.0,1,1,1,
Status,1774443247000,32,6,1,18,,18.30,53.0,35.0,1,1,1,
Status,1774443247000,32,7,1,23,,22.30,88.0,51.0,1,1,1,
Status,1774443247000,32,8,1,26,,27.70,178.0,38.0,1,1,1,
Status,1774443247000,32,9,1,27,,22.10,305.0,61.0,1,1,1,
Status,1774443247000,32,10,1,20,,0.00,30.0,2.0,0,1,0,
Status,1774443247000,32,11,3,10,,12.50,262.0,58.0,0,1,0,
Status,1774443247000,32,12,3,9,,19.10,195.0,32.0,0,1,0,
Status,1774443247000,32,13,3,11,,15.00,326.0,25.0,0,1,0,
Status,1774443247000,32,14,3,20,,10.90,296.0,61.0,0,1,0,
Status,1774443247000,32,15,3,19,,23.20,43.0,43.0,1,1,1,
Status,1774443247000,32,16,3,21,,11.00,260.0,20.0,0,1,0,
Status,1774443247000,32,17,3,3,,17.30,36.0,18.0,0,1,0,
Status,1774443247000,32,18,3,5,,0.00,130.0,2.0,0,1,0,
Status,1774443247000,32,19,3,4,,0.00,87.0,21.0,0,1,0,
Status,1774443247000,32,20,5,8,,9.60,36.0,30.0,0,1,0,
Status,1774443247000,32,21,5,11,,19.60,324.0,75.0,1,1,1,
Status,1774443247000,32,22,5,12,,20.90,67.0,37.0,1,1,1,
Status,1774443247000,32,23,5,13,,18.10,47.0,37.0,1,1,1,
Status,1774443247000,32,24,5,22,,15.90,46.0,17.0,1,1,1,
Status,1774443247000,32,25,5,23,,18.60,278.0,40.0,0,1,0,
Status,1774443247000,32,26,5,25,,23.10,213.0,33.0,0,1,0,
Status,1774443247000,32,27,5,2,,0.00,97.0,2.0,0,1,0,
Status,1774443247000,32,28,5,5,,0.00,118.0,17.0,0,1,0,
Status,1774443247000,32,29,5,21,,0.00,99.0,25.0,0,1,1,
Status,1774443247000,32,30,2,123,,28.50,0.0,0.0,0,0,0,
Status,1774443247000,32,31,2,136,,30.90,0.0,0.0,0,0,0,
Fix,GPS,45.0646185000,7.6573726500,298.07598876953125,0.0,3.216,,1774443248000,0.22825424,,54452594251044,6.0,,,,
Fix,FLP,45.0646150000,7.6573605000,297.878662109375,0.0,6.155,,1774443248349,,,54452510000000,6.0,,,,
Status,1774443248000,32,0,1,2,,17.60,243.0,10.0,0,1,0,
Status,1774443248000,32,1,1,7,,10.20,317.0,9.0,0,1,0,
Status,1774443248000,32,2,1,8,,18.50,293.0,28.0,1,1,1,
Status,1774443248000,32,3,1,10,,30.20,149.0,43.0,1,1,1,
Status,1774443248000,32,4,1,15,,10.50,52.0,7.0,0,1,0,
Status,1774443248000,32,5,1,16,,16.40,210.0,68.0,1,1,1,
Status,1774443248000,32,6,1,18,,19.80,53.0,35.0,1,1,1,
Status,1774443248000,32,7,1,23,,22.30,88.0,51.0,1,1,1,
Status,1774443248000,32,8,1,26,,27.60,178.0,38.0,1,1,1,
Status,1774443248000,32,9,1,27,,21.70,305.0,61.0,1,1,1,
Status,1774443248000,32,10,1,20,,0.00,30.0,2.0,0,1,0,
Status,1774443248000,32,11,3,10,,12.50,262.0,58.0,0,1,0,
Status,1774443248000,32,12,3,9,,18.00,195.0,32.0,0,1,0,
Status,1774443248000,32,13,3,11,,15.00,326.0,25.0,0,1,0,
Status,1774443248000,32,14,3,20,,10.90,296.0,61.0,0,1,0,
Status,1774443248000,32,15,3,19,,21.10,43.0,43.0,1,1,1,
Status,1774443248000,32,16,3,21,,11.60,260.0,20.0,0,1,0,
Status,1774443248000,32,17,3,3,,17.30,36.0,18.0,0,1,0,
Status,1774443248000,32,18,3,5,,0.00,130.0,2.0,0,1,0,
Status,1774443248000,32,19,3,4,,0.00,87.0,21.0,0,1,0,
Status,1774443248000,32,20,5,8,,9.60,36.0,30.0,0,1,0,
Status,1774443248000,32,21,5,11,,20.00,324.0,75.0,1,1,1,
Status,1774443248000,32,22,5,12,,20.20,67.0,37.0,1,1,1,
Status,1774443248000,32,23,5,13,,18.10,47.0,37.0,1,1,1,
Status,1774443248000,32,24,5,22,,15.90,46.0,17.0,1,1,1,
Status,1774443248000,32,25,5,23,,18.60,278.0,40.0,0,1,0,
Status,1774443248000,32,26,5,25,,23.90,213.0,33.0,0,1,0,
Status,1774443248000,32,27,5,2,,0.00,97.0,2.0,0,1,0,
Status,1774443248000,32,28,5,5,,0.00,118.0,17.0,0,1,0,
Status,1774443248000,32,29,5,21,,0.00,99.0,25.0,0,1,1,
Status,1774443248000,32,30,2,123,,28.50,0.0,0.0,0,0,0,
Status,1774443248000,32,31,2,136,,30.90,0.0,0.0,0,0,0,
Fix,GPS,45.0646265700,7.6573775400,298.590576171875,0.0,3.216,,1774443249000,0.2505993,,54453582194116,6.0,,,,
Fix,FLP,45.0646189000,7.6573676000,298.590576171875,0.0,6.153,,1774443249000,,,54453582194116,6.0,,,,
Status,1774443249000,32,0,1,2,,17.60,243.0,10.0,0,1,0,
Status,1774443249000,32,1,1,7,,10.20,317.0,9.0,0,1,0,
Status,1774443249000,32,2,1,8,,18.50,293.0,28.0,1,1,1,
Status,1774443249000,32,3,1,10,,31.40,149.0,43.0,1,1,1,
Status,1774443249000,32,4,1,15,,10.50,52.0,7.0,0,1,0,
Status,1774443249000,32,5,1,16,,16.40,210.0,68.0,1,1,1,
Status,1774443249000,32,6,1,18,,19.50,53.0,35.0,1,1,1,
Status,1774443249000,32,7,1,23,,22.70,88.0,51.0,1,1,1,
Status,1774443249000,32,8,1,26,,27.30,178.0,38.0,1,1,1,
Status,1774443249000,32,9,1,27,,23.60,305.0,61.0,1,1,1,
Status,1774443249000,32,10,1,20,,0.00,30.0,2.0,0,1,0,
Status,1774443249000,32,11,3,10,,12.50,262.0,58.0,0,1,0,
Status,1774443249000,32,12,3,9,,20.80,195.0,32.0,0,1,0,
Status,1774443249000,32,13,3,11,,15.10,326.0,25.0,0,1,0,
Status,1774443249000,32,14,3,20,,10.90,296.0,61.0,0,1,0,
Status,1774443249000,32,15,3,19,,22.30,43.0,43.0,1,1,1,
Status,1774443249000,32,16,3,21,,11.60,260.0,20.0,0,1,0,
Status,1774443249000,32,17,3,3,,17.30,36.0,18.0,0,1,0,
Status,1774443249000,32,18,3,5,,0.00,130.0,2.0,0,1,0,
Status,1774443249000,32,19,3,4,,0.00,87.0,21.0,0,1,0,
Status,1774443249000,32,20,5,8,,10.80,36.0,30.0,0,1,0,
Status,1774443249000,32,21,5,11,,20.10,324.0,75.0,1,1,1,
Status,1774443249000,32,22,5,12,,20.00,67.0,37.0,1,1,1,
Status,1774443249000,32,23,5,13,,15.00,47.0,37.0,1,1,1,
Status,1774443249000,32,24,5,22,,16.10,46.0,17.0,1,1,1,
Status,1774443249000,32,25,5,23,,17.00,278.0,40.0,0,1,0,
Status,1774443249000,32,26,5,25,,23.70,213.0,33.0,0,1,0,
Status,1774443249000,32,27,5,2,,0.00,97.0,2.0,0,1,0,
Status,1774443249000,32,28,5,5,,0.00,118.0,17.0,0,1,0,
Status,1774443249000,32,29,5,21,,0.00,99.0,25.0,0,1,1,
Status,1774443249000,32,30,2,123,,28.50,0.0,0.0,0,0,0,
Status,1774443249000,32,31,2,136,,30.90,0.0,0.0,0,0,0,
Fix,GPS,45.0646286900,7.6573846200,297.691162109375,0.0,3.216,,1774443250000,0.15811388,,54454587122970,6.0,,,,
Fix,FLP,45.0646216000,7.6573723000,297.691162109375,0.0,6.152,,1774443250000,,,54454587122970,6.0,,,,
Status,1774443250000,32,0,1,2,,15.80,243.0,10.0,0,1,0,
Status,1774443250000,32,1,1,7,,10.20,317.0,9.0,0,1,0,
Status,1774443250000,32,2,1,8,,18.50,293.0,28.0,1,1,1,
Status,1774443250000,32,3,1,10,,30.70,149.0,43.0,1,1,1,
Status,1774443250000,32,4,1,15,,10.50,52.0,7.0,0,1,0,
Status,1774443250000,32,5,1,16,,16.40,210.0,68.0,1,1,1,
Status,1774443250000,32,6,1,18,,17.00,53.0,35.0,1,1,1,
Status,1774443250000,32,7,1,23,,22.20,88.0,51.0,1,1,1,
Status,1774443250000,32,8,1,26,,26.70,178.0,38.0,1,1,1,
Status,1774443250000,32,9,1,27,,21.80,305.0,61.0,1,1,1,
Status,1774443250000,32,10,1,20,,0.00,30.0,2.0,0,1,0,
Status,1774443250000,32,11,3,10,,12.50,262.0,58.0,0,1,0,
Status,1774443250000,32,12,3,9,,19.60,195.0,32.0,0,1,0,
Status,1774443250000,32,13,3,11,,15.10,326.0,25.0,0,1,0,
Status,1774443250000,32,14,3,20,,10.90,296.0,61.0,0,1,0,
Status,1774443250000,32,15,3,19,,21.20,43.0,43.0,1,1,1,
Status,1774443250000,32,16,3,21,,11.60,260.0,20.0,0,1,0,
Status,1774443250000,32,17,3,3,,17.30,36.0,18.0,0,1,0,
Status,1774443250000,32,18,3,5,,0.00,130.0,2.0,0,1,0,
Status,1774443250000,32,19,3,4,,0.00,87.0,21.0,0,1,0,
Status,1774443250000,32,20,5,8,,10.80,36.0,30.0,0,1,0,
Status,1774443250000,32,21,5,11,,20.60,324.0,75.0,1,1,1,
Status,1774443250000,32,22,5,12,,19.30,67.0,37.0,1,1,1,
Status,1774443250000,32,23,5,13,,15.00,47.0,37.0,1,1,1,
Status,1774443250000,32,24,5,22,,16.10,46.0,17.0,1,1,1,
Status,1774443250000,32,25,5,23,,17.00,278.0,40.0,0,1,0,
Status,1774443250000,32,26,5,25,,24.40,213.0,33.0,0,1,0,
Status,1774443250000,32,27,5,2,,0.00,97.0,2.0,0,1,0,
Status,1774443250000,32,28,5,5,,0.00,118.0,17.0,0,1,0,
Status,1774443250000,32,29,5,21,,0.00,99.0,25.0,0,1,1,
Status,1774443250000,32,30,2,123,,28.50,0.0,0.0,0,0,0,
Status,1774443250000,32,31,2,136,,30.90,0.0,0.0,0,0,0,
Fix,GPS,45.0646301600,7.6573866600,297.83685302734375,0.0,3.216,,1774443251000,0.26627055,,54455579226459,6.0,,,,
Fix,FLP,45.0646240000,7.6573762000,297.83685302734375,0.0,6.152,,1774443251000,,,54455579226459,6.0,,,,
Status,1774443251000,32,0,1,2,,19.20,243.0,10.0,0,1,0,
Status,1774443251000,32,1,1,7,,10.20,317.0,9.0,0,1,0,
Status,1774443251000,32,2,1,8,,17.50,293.0,28.0,1,1,1,
Status,1774443251000,32,3,1,10,,31.70,149.0,43.0,1,1,1,
Status,1774443251000,32,4,1,15,,10.50,52.0,7.0,0,1,0,
Status,1774443251000,32,5,1,16,,16.40,210.0,68.0,1,1,1,
Status,1774443251000,32,6,1,18,,19.00,53.0,35.0,1,1,1,
Status,1774443251000,32,7,1,23,,22.30,88.0,51.0,1,1,1,
Status,1774443251000,32,8,1,26,,28.50,178.0,38.0,1,1,1,
Status,1774443251000,32,9,1,27,,22.70,305.0,61.0,1,1,1,
Status,1774443251000,32,10,1,20,,0.00,30.0,2.0,0,1,0,
Status,1774443251000,32,11,3,10,,12.50,262.0,58.0,0,1,0,
Status,1774443251000,32,12,3,9,,21.80,195.0,32.0,0,1,0,
Status,1774443251000,32,13,3,11,,15.10,326.0,25.0,0,1,0,
Status,1774443251000,32,14,3,20,,10.90,296.0,61.0,0,1,0,
Status,1774443251000,32,15,3,19,,23.20,43.0,43.0,1,1,1,
Status,1774443251000,32,16,3,21,,11.60,260.0,20.0,0,1,0,
Status,1774443251000,32,17,3,3,,17.30,36.0,18.0,0,1,0,
Status,1774443251000,32,18,3,5,,0.00,130.0,2.0,0,1,0,
Status,1774443251000,32,19,3,4,,0.00,87.0,21.0,0,1,0,
Status,1774443251000,32,20,5,8,,10.80,36.0,30.0,0,1,0,
Status,1774443251000,32,21,5,11,,21.80,324.0,75.0,1,1,1,
Status,1774443251000,32,22,5,12,,20.60,67.0,37.0,1,1,1,
Status,1774443251000,32,23,5,13,,17.30,47.0,37.0,1,1,1,
Status,1774443251000,32,24,5,22,,16.10,46.0,17.0,1,1,1,
Status,1774443251000,32,25,5,23,,17.40,278.0,40.0,0,1,0,
Status,1774443251000,32,26,5,25,,23.60,213.0,33.0,0,1,0,
Status,1774443251000,32,27,5,2,,0.00,97.0,2.0,0,1,0,
Status,1774443251000,32,28,5,5,,0.00,118.0,17.0,0,1,0,
Status,1774443251000,32,29,5,21,,0.00,99.0,25.0,0,1,1,
Status,1774443251000,32,30,2,123,,28.50,0.0,0.0,0,0,0,
Status,1774443251000,32,31,2,136,,30.90,0.0,0.0,0,0,0,
Fix,GPS,45.0646276400,7.6573859500,297.771484375,0.0,3.216,,1774443252000,0.16643317,,54456579897084,6.0,,,,
Fix,FLP,45.0646250000,7.6573789000,297.771484375,0.0,6.152,,1774443252000,,,54456579897084,6.0,,,,
Fix,NLP,45.0651932000,7.6570244000,301.3999938964844,,34.352,,1774443248349,,,54456747903282,10.5,,,,
Status,1774443252000,32,0,1,2,,19.20,243.0,10.0,0,1,0,
Status,1774443252000,32,1,1,7,,10.20,317.0,9.0,0,1,0,
Status,1774443252000,32,2,1,8,,19.40,293.0,28.0,1,1,1,
Status,1774443252000,32,3,1,10,,31.80,149.0,43.0,1,1,1,
Status,1774443252000,32,4,1,15,,13.40,52.0,7.0,0,1,0,
Status,1774443252000,32,5,1,16,,16.40,210.0,68.0,1,1,1,
Status,1774443252000,32,6,1,18,,20.10,53.0,35.0,1,1,1,
Status,1774443252000,32,7,1,23,,22.80,88.0,51.0,1,1,1,
Status,1774443252000,32,8,1,26,,28.50,178.0,38.0,1,1,1,
Status,1774443252000,32,9,1,27,,22.60,305.0,61.0,1,1,1,
Status,1774443252000,32,10,1,20,,0.00,30.0,2.0,0,1,0,
Status,1774443252000,32,11,3,10,,12.50,262.0,58.0,0,1,0,
Status,1774443252000,32,12,3,9,,22.70,195.0,32.0,0,1,0,
Status,1774443252000,32,13,3,11,,13.80,326.0,25.0,0,1,0,
Status,1774443252000,32,14,3,20,,10.90,296.0,61.0,0,1,0,
Status,1774443252000,32,15,3,19,,22.70,43.0,43.0,1,1,1,
Status,1774443252000,32,16,3,21,,11.60,260.0,20.0,0,1,0,
Status,1774443252000,32,17,3,3,,17.30,36.0,18.0,0,1,0,
Status,1774443252000,32,18,3,5,,0.00,130.0,2.0,0,1,0,
Status,1774443252000,32,19,3,4,,0.00,87.0,21.0,0,1,0,
Status,1774443252000,32,20,5,8,,10.80,36.0,30.0,0,1,0,
Status,1774443252000,32,21,5,11,,22.30,324.0,75.0,1,1,1,
Status,1774443252000,32,22,5,12,,21.70,67.0,37.0,1,1,1,
Status,1774443252000,32,23,5,13,,17.30,47.0,37.0,1,1,1,
Status,1774443252000,32,24,5,22,,15.10,46.0,17.0,1,1,1,
Status,1774443252000,32,25,5,23,,17.90,278.0,40.0,0,1,0,
Status,1774443252000,32,26,5,25,,23.90,213.0,33.0,0,1,0,
Status,1774443252000,32,27,5,2,,0.00,97.0,2.0,0,1,0,
Status,1774443252000,32,28,5,5,,0.00,118.0,17.0,0,1,0,
Status,1774443252000,32,29,5,21,,0.00,99.0,25.0,0,1,1,
Status,1774443252000,32,30,2,123,,28.50,0.0,0.0,0,0,0,
Status,1774443252000,32,31,2,136,,30.90,0.0,0.0,0,0,0,
Fix,GPS,45.0646313900,7.6573838900,297.585205078125,0.0,3.216,,1774443253000,0.15811388,,54457579294479,6.0,,,,
Fix,FLP,45.0646267000,7.6573803000,297.585205078125,0.0,6.151,,1774443253000,,,54457579294479,6.0,,,,
Status,1774443253000,32,0,1,2,,18.50,243.0,10.0,0,1,0,
Status,1774443253000,32,1,1,7,,10.20,317.0,9.0,0,1,0,
Status,1774443253000,32,2,1,8,,19.40,293.0,28.0,1,1,1,
Status,1774443253000,32,3,1,10,,31.30,149.0,43.0,1,1,1,
Status,1774443253000,32,4,1,15,,13.40,52.0,7.0,0,1,0,
Status,1774443253000,32,5,1,16,,12.80,210.0,68.0,1,1,1,
Status,1774443253000,32,6,1,18,,19.00,53.0,35.0,1,1,1,
Status,1774443253000,32,7,1,23,,22.40,88.0,51.0,1,1,1,
Status,1774443253000,32,8,1,26,,28.10,178.0,38.0,1,1,1,
Status,1774443253000,32,9,1,27,,22.70,305.0,61.0,1,1,1,
Status,1774443253000,32,10,1,20,,0.00,30.0,2.0,0,1,0,
Status,1774443253000,32,11,3,10,,12.50,262.0,58.0,0,1,0,
Status,1774443253000,32,12,3,9,,21.10,195.0,32.0,0,1,0,
Status,1774443253000,32,13,3,11,,13.80,326.0,25.0,0,1,0,
Status,1774443253000,32,14,3,20,,10.90,296.0,61.0,0,1,0,
Status,1774443253000,32,15,3,19,,22.00,43.0,43.0,1,1,1,
Status,1774443253000,32,16,3,21,,12.60,260.0,20.0,0,1,0,
Status,1774443253000,32,17,3,3,,17.30,36.0,18.0,0,1,0,
Status,1774443253000,32,18,3,5,,0.00,130.0,2.0,0,1,0,
Status,1774443253000,32,19,3,4,,0.00,87.0,21.0,0,1,0,
Status,1774443253000,32,20,5,8,,10.80,36.0,30.0,0,1,0,
Status,1774443253000,32,21,5,11,,22.00,324.0,75.0,1,1,1,
Status,1774443253000,32,22,5,12,,20.10,67.0,37.0,1,1,1,
Status,1774443253000,32,23,5,13,,16.00,47.0,37.0,1,1,1,
Status,1774443253000,32,24,5,22,,15.10,46.0,17.0,1,1,1,
Status,1774443253000,32,25,5,23,,18.80,278.0,40.0,0,1,0,
Status,1774443253000,32,26,5,25,,24.60,213.0,33.0,0,1,0,
Status,1774443253000,32,27,5,2,,0.00,97.0,2.0,0,1,0,
Status,1774443253000,32,28,5,5,,0.00,118.0,17.0,0,1,0,
Status,1774443253000,32,29,5,21,,0.00,99.0,25.0,0,1,1,
Status,1774443253000,32,30,2,123,,28.50,0.0,0.0,0,0,0,
Status,1774443253000,32,31,2,136,,30.90,0.0,0.0,0,0,0,
Fix,GPS,45.0646300800,7.6573870000,297.28857421875,0.0,3.216,,1774443254000,0.15811388,,54458579666041,6.0,,,,
Fix,FLP,45.0646277000,7.6573821000,297.28857421875,0.0,6.151,,1774443254000,,,54458579666041,6.0,,,,
Status,1774443254000,32,0,1,2,,18.30,243.0,10.0,0,1,0,
Status,1774443254000,32,1,1,7,,10.20,317.0,9.0,0,1,0,
Status,1774443254000,32,2,1,8,,15.80,293.0,28.0,1,1,1,
Status,1774443254000,32,3,1,10,,30.20,149.0,43.0,1,1,1,
Status,1774443254000,32,4,1,15,,13.40,52.0,7.0,0,1,0,
Status,1774443254000,32,5,1,16,,12.80,210.0,68.0,1,1,1,
Status,1774443254000,32,6,1,18,,20.70,53.0,35.0,1,1,1,
Status,1774443254000,32,7,1,23,,22.00,88.0,51.0,1,1,1,
Status,1774443254000,32,8,1,26,,27.30,178.0,38.0,1,1,1,
Status,1774443254000,32,9,1,27,,21.70,305.0,61.0,1,1,1,
Status,1774443254000,32,10,1,20,,0.00,30.0,2.0,0,1,0,
Status,1774443254000,32,11,3,10,,12.50,262.0,58.0,0,1,0,
Status,1774443254000,32,12,3,9,,20.90,195.0,32.0,0,1,0,
Status,1774443254000,32,13,3,11,,13.80,326.0,25.0,0,1,0,
Status,1774443254000,32,14,3,20,,10.90,296.0,61.0,0,1,0,
Status,1774443254000,32,15,3,19,,21.40,43.0,43.0,1,1,1,
Status,1774443254000,32,16,3,21,,12.60,260.0,20.0,0,1,0,
Status,1774443254000,32,17,3,3,,17.30,36.0,18.0,0,1,0,
Status,1774443254000,32,18,3,5,,0.00,130.0,2.0,0,1,0,
Status,1774443254000,32,19,3,4,,0.00,87.0,21.0,0,1,0,
Status,1774443254000,32,20,5,8,,10.80,36.0,30.0,0,1,0,
Status,1774443254000,32,21,5,11,,20.30,324.0,75.0,1,1,1,
Status,1774443254000,32,22,5,12,,21.00,67.0,37.0,1,1,1,
Status,1774443254000,32,23,5,13,,16.00,47.0,37.0,1,1,1,
Status,1774443254000,32,24,5,22,,16.90,46.0,17.0,1,1,1,
Status,1774443254000,32,25,5,23,,18.80,278.0,40.0,0,1,0,
Status,1774443254000,32,26,5,25,,24.10,213.0,33.0,0,1,0,
Status,1774443254000,32,27,5,2,,0.00,97.0,2.0,0,1,0,
Status,1774443254000,32,28,5,5,,0.00,118.0,17.0,0,1,0,
Status,1774443254000,32,29,5,21,,0.00,99.0,25.0,0,1,1,
Status,1774443254000,32,30,2,123,,28.50,0.0,0.0,0,0,0,
Status,1774443254000,32,31,2,136,,30.90,0.0,0.0,0,0,0,
Fix,GPS,45.0646264600,7.6573847500,297.60308837890625,0.0,3.216,,1774443255000,0.22472206,,54459584761926,6.0,,,,
Fix,FLP,45.0646273000,7.6573829000,297.60308837890625,0.0,6.151,,1774443255000,,,54459584761926,6.0,,,,
Status,1774443255000,32,0,1,2,,17.10,243.0,10.0,0,1,0,
Status,1774443255000,32,1,1,7,,10.20,317.0,9.0,0,1,0,
Status,1774443255000,32,2,1,8,,17.20,293.0,28.0,1,1,1,
Status,1774443255000,32,3,1,10,,30.50,149.0,43.0,1,1,1,
Status,1774443255000,32,4,1,15,,16.10,52.0,7.0,0,1,0,
Status,1774443255000,32,5,1,16,,12.80,210.0,68.0,1,1,1,
Status,1774443255000,32,6,1,18,,20.30,53.0,35.0,1,1,1,
Status,1774443255000,32,7,1,23,,22.90,88.0,51.0,1,1,1,
Status,1774443255000,32,8,1,26,,27.90,178.0,38.0,1,1,1,
Status,1774443255000,32,9,1,27,,22.00,305.0,61.0,1,1,1,
Status,1774443255000,32,10,1,20,,0.00,30.0,2.0,0,1,0,
Status,1774443255000,32,11,3,10,,12.50,262.0,58.0,0,1,0,
Status,1774443255000,32,12,3,9,,22.00,195.0,32.0,0,1,0,
Status,1774443255000,32,13,3,11,,13.80,326.0,25.0,0,1,0,
Status,1774443255000,32,14,3,20,,11.40,296.0,61.0,0,1,0,
Status,1774443255000,32,15,3,19,,21.50,43.0,43.0,1,1,1,
Status,1774443255000,32,16,3,21,,12.60,260.0,20.0,0,1,0,
Status,1774443255000,32,17,3,3,,17.30,36.0,18.0,0,1,0,
Status,1774443255000,32,18,3,5,,0.00,130.0,2.0,0,1,0,
Status,1774443255000,32,19,3,4,,0.00,87.0,21.0,0,1,0,
Status,1774443255000,32,20,5,8,,10.80,36.0,30.0,0,1,0,
Status,1774443255000,32,21,5,11,,20.70,324.0,75.0,1,1,1,
Status,1774443255000,32,22,5,12,,20.70,67.0,37.0,1,1,1,
Status,1774443255000,32,23,5,13,,17.50,47.0,37.0,1,1,1,
Status,1774443255000,32,24,5,22,,17.70,46.0,17.0,1,1,1,
Status,1774443255000,32,25,5,23,,18.20,278.0,40.0,0,1,0,
Status,1774443255000,32,26,5,25,,23.90,213.0,33.0,0,1,0,
Status,1774443255000,32,27,5,2,,0.00,97.0,2.0,0,1,0,
Status,1774443255000,32,28,5,5,,0.00,118.0,17.0,0,1,0,
Status,1774443255000,32,29,5,21,,0.00,99.0,25.0,0,1,1,
Status,1774443255000,32,30,2,123,,28.50,0.0,0.0,0,0,0,
Status,1774443255000,32,31,2,136,,30.90,0.0,0.0,0,0,0,
Fix,GPS,45.0646277600,7.6573829900,297.25909423828125,0.0,3.216,,1774443256000,0.3224903,,54460582644947,6.0,,,,
Fix,FLP,45.0646275000,7.6573829000,297.25909423828125,0.0,6.151,,1774443256000,,,54460582644947,6.0,,,,
Status,1774443256000,31,0,1,2,,17.80,243.0,10.0,0,1,0,
Status,1774443256000,31,1,1,7,,10.20,317.0,9.0,0,1,0,
Status,1774443256000,31,2,1,8,,19.00,293.0,28.0,1,1,1,
Status,1774443256000,31,3,1,10,,30.30,149.0,43.0,1,1,1,
Status,1774443256000,31,4,1,15,,16.10,52.0,7.0,0,1,0,
Status,1774443256000,31,5,1,16,,12.80,210.0,68.0,1,1,1,
Status,1774443256000,31,6,1,18,,19.60,53.0,35.0,1,1,1,
Status,1774443256000,31,7,1,23,,22.30,88.0,51.0,1,1,1,
Status,1774443256000,31,8,1,26,,27.60,178.0,38.0,1,1,1,
Status,1774443256000,31,9,1,27,,23.30,305.0,61.0,1,1,1,
Status,1774443256000,31,10,1,20,,0.00,30.0,2.0,0,1,0,
Status,1774443256000,31,11,3,10,,12.50,262.0,58.0,0,1,0,
Status,1774443256000,31,12,3,9,,20.50,195.0,32.0,0,1,0,
Status,1774443256000,31,13,3,11,,13.80,326.0,25.0,0,1,0,
Status,1774443256000,31,14,3,20,,11.40,296.0,61.0,0,1,0,
Status,1774443256000,31,15,3,19,,21.30,43.0,43.0,1,1,1,
Status,1774443256000,31,16,3,21,,12.60,260.0,20.0,0,1,0,
Status,1774443256000,31,17,3,5,,0.00,130.0,2.0,0,1,0,
Status,1774443256000,31,18,3,4,,0.00,87.0,21.0,0,1,0,
Status,1774443256000,31,19,5,8,,10.80,36.0,30.0,0,1,0,
Status,1774443256000,31,20,5,11,,22.30,324.0,75.0,1,1,1,
Status,1774443256000,31,21,5,12,,19.70,67.0,37.0,1,1,1,
Status,1774443256000,31,22,5,13,,17.50,47.0,37.0,1,1,1,
Status,1774443256000,31,23,5,22,,17.70,46.0,17.0,1,1,1,
Status,1774443256000,31,24,5,23,,18.20,278.0,40.0,0,1,0,
Status,1774443256000,31,25,5,25,,24.40,213.0,33.0,0,1,0,
Status,1774443256000,31,26,5,2,,0.00,97.0,2.0,0,1,0,
Status,1774443256000,31,27,5,5,,0.00,118.0,17.0,0,1,0,
Status,1774443256000,31,28,5,21,,0.00,99.0,25.0,0,1,1,
Status,1774443256000,31,29,2,123,,28.50,0.0,0.0,0,0,0,
Status,1774443256000,31,30,2,136,,30.90,0.0,0.0,0,0,0,
Fix,GPS,45.0646267600,7.6573871100,297.41961669921875,0.0,3.216,,1774443257000,0.21954498,,54461584097499,6.0,,,,
Fix,FLP,45.0646273000,7.6573841000,297.41961669921875,0.0,6.151,,1774443257000,,,54461584097499,6.0,,,,
Status,1774443257000,32,0,1,2,,18.10,243.0,10.0,0,1,0,
Status,1774443257000,32,1,1,7,,10.20,317.0,9.0,0,1,0,
Status,1774443257000,32,2,1,8,,19.00,293.0,28.0,1,1,1,
Status,1774443257000,32,3,1,10,,30.60,149.0,43.0,1,1,1,
Status,1774443257000,32,4,1,15,,17.30,52.0,7.0,0,1,0,
Status,1774443257000,32,5,1,16,,12.80,210.0,68.0,1,1,1,
Status,1774443257000,32,6,1,18,,19.40,53.0,35.0,1,1,1,
Status,1774443257000,32,7,1,23,,23.30,88.0,51.0,1,1,1,
Status,1774443257000,32,8,1,26,,28.60,178.0,38.0,1,1,1,
Status,1774443257000,32,9,1,27,,23.10,305.0,61.0,1,1,1,
Status,1774443257000,32,10,1,20,,0.00,30.0,2.0,0,1,0,
Status,1774443257000,32,11,3,10,,12.50,262.0,58.0,0,1,0,
Status,1774443257000,32,12,3,9,,20.70,195.0,32.0,0,1,0,
Status,1774443257000,32,13,3,11,,14.10,326.0,25.0,0,1,0,
Status,1774443257000,32,14,3,20,,11.40,296.0,61.0,0,1,0,
Status,1774443257000,32,15,3,19,,23.10,43.0,43.0,1,1,1,
Status,1774443257000,32,16,3,21,,12.60,260.0,20.0,0,1,0,
Status,1774443257000,32,17,3,5,,0.00,130.0,2.0,0,1,0,
Status,1774443257000,32,18,3,3,,0.00,36.0,18.0,0,1,0,
Status,1774443257000,32,19,3,4,,0.00,87.0,21.0,0,1,0,
Status,1774443257000,32,20,5,8,,10.80,36.0,30.0,0,1,0,
Status,1774443257000,32,21,5,11,,22.00,324.0,75.0,1,1,1,
Status,1774443257000,32,22,5,12,,21.30,67.0,37.0,1,1,1,
Status,1774443257000,32,23,5,13,,16.40,47.0,37.0,1,1,1,
Status,1774443257000,32,24,5,22,,16.90,46.0,17.0,1,1,1,
Status,1774443257000,32,25,5,23,,17.30,278.0,40.0,0,1,0,
Status,1774443257000,32,26,5,25,,24.20,213.0,33.0,0,1,0,
Status,1774443257000,32,27,5,2,,0.00,97.0,2.0,0,1,0,
Status,1774443257000,32,28,5,5,,0.00,118.0,17.0,0,1,0,
Status,1774443257000,32,29,5,21,,0.00,99.0,25.0,0,1,1,
Status,1774443257000,32,30,2,123,,28.50,0.0,0.0,0,0,0,
Status,1774443257000,32,31,2,136,,30.90,0.0,0.0,0,0,0,
Fix,GPS,45.0646267900,7.6573865100,297.53155517578125,0.0,3.216,,1774443258000,0.5240229,,54462577992186,6.0,,,,
Fix,FLP,45.0646269000,7.6573858000,297.53155517578125,0.0,3.867,,1774443258000,,,54462577992186,6.0,,,,
Fix,NLP,45.0651953000,7.6570106000,301.3999938964844,,35.302,,1774443258373,,,54462606499634,10.5,,,,
Status,1774443258000,32,0,1,2,,18.10,243.0,10.0,0,1,0,
Status,1774443258000,32,1,1,8,,16.80,293.0,28.0,1,1,1,
Status,1774443258000,32,2,1,10,,31.70,149.0,43.0,1,1,1,
Status,1774443258000,32,3,1,15,,18.90,52.0,7.0,0,1,0,
Status,1774443258000,32,4,1,16,,13.20,210.0,68.0,1,1,1,
Status,1774443258000,32,5,1,18,,20.10,53.0,35.0,1,1,1,
Status,1774443258000,32,6,1,23,,22.80,88.0,51.0,1,1,1,
Status,1774443258000,32,7,1,26,,29.30,178.0,38.0,1,1,1,
Status,1774443258000,32,8,1,27,,23.60,305.0,61.0,1,1,1,
Status,1774443258000,32,9,1,7,,0.00,317.0,9.0,0,1,0,
Status,1774443258000,32,10,1,20,,0.00,30.0,2.0,0,1,0,
Status,1774443258000,32,11,3,10,,12.50,262.0,58.0,0,1,0,
Status,1774443258000,32,12,3,9,,22.30,195.0,32.0,0,1,0,
Status,1774443258000,32,13,3,11,,16.70,326.0,25.0,0,1,0,
Status,1774443258000,32,14,3,20,,11.40,296.0,61.0,0,1,0,
Status,1774443258000,32,15,3,19,,22.90,43.0,43.0,1,1,1,
Status,1774443258000,32,16,3,21,,12.60,260.0,20.0,0,1,0,
Status,1774443258000,32,17,3,5,,0.00,130.0,2.0,0,1,0,
Status,1774443258000,32,18,3,3,,0.00,36.0,18.0,0,1,0,
Status,1774443258000,32,19,3,4,,0.00,87.0,21.0,0,1,0,
Status,1774443258000,32,20,5,8,,10.80,36.0,30.0,0,1,0,
Status,1774443258000,32,21,5,11,,22.20,324.0,75.0,1,1,1,
Status,1774443258000,32,22,5,12,,20.60,67.0,37.0,1,1,1,
Status,1774443258000,32,23,5,13,,18.50,47.0,37.0,1,1,1,
Status,1774443258000,32,24,5,22,,16.90,46.0,17.0,1,1,1,
Status,1774443258000,32,25,5,23,,17.50,278.0,40.0,0,1,0,
Status,1774443258000,32,26,5,25,,24.40,213.0,33.0,0,1,0,
Status,1774443258000,32,27,5,2,,0.00,97.0,2.0,0,1,0,
Status,1774443258000,32,28,5,5,,0.00,118.0,17.0,0,1,0,
Status,1774443258000,32,29,5,21,,0.00,99.0,25.0,0,1,1,
Status,1774443258000,32,30,2,123,,28.50,0.0,0.0,0,0,0,
Status,1774443258000,32,31,2,136,,30.90,0.0,0.0,0,0,0,
Fix,GPS,45.0646278600,7.6573866600,297.9820556640625,0.0,3.216,,1774443259000,0.22825424,,54463582486404,6.0,,,,
Fix,FLP,45.0646271000,7.6573860000,297.9820556640625,0.0,4.578,,1774443259000,,,54463582486404,6.0,,,,
Status,1774443259000,32,0,1,2,,16.90,243.0,10.0,0,1,0,
Status,1774443259000,32,1,1,8,,17.60,293.0,28.0,1,1,1,
Status,1774443259000,32,2,1,10,,33.00,149.0,43.0,1,1,1,
Status,1774443259000,32,3,1,15,,19.40,52.0,7.0,0,1,0,
Status,1774443259000,32,4,1,16,,18.90,210.0,68.0,1,1,1,
Status,1774443259000,32,5,1,18,,20.30,53.0,35.0,1,1,1,
Status,1774443259000,32,6,1,23,,22.40,88.0,51.0,1,1,1,
Status,1774443259000,32,7,1,26,,30.10,178.0,38.0,1,1,1,
Status,1774443259000,32,8,1,27,,24.30,305.0,61.0,1,1,1,
Status,1774443259000,32,9,1,7,,0.00,317.0,9.0,0,1,0,
Status,1774443259000,32,10,1,20,,0.00,30.0,2.0,0,1,0,
Status,1774443259000,32,11,3,10,,12.50,262.0,58.0,0,1,0,
Status,1774443259000,32,12,3,9,,24.20,195.0,32.0,0,1,0,
Status,1774443259000,32,13,3,11,,18.80,326.0,25.0,0,1,0,
Status,1774443259000,32,14,3,20,,11.40,296.0,61.0,0,1,0,
Status,1774443259000,32,15,3,19,,24.50,43.0,43.0,1,1,1,
Status,1774443259000,32,16,3,21,,13.80,260.0,20.0,0,1,0,
Status,1774443259000,32,17,3,5,,0.00,130.0,2.0,0,1,0,
Status,1774443259000,32,18,3,3,,0.00,36.0,18.0,0,1,0,
