# 
# Header Description:
# 
# Version: v3.1.1.2 Platform: 14 Manufacturer: OnePlus Model: CPH2399 GNSS Hardware Model Name: MTK_MNLD_6_0_0_20040301,MNL_VER_24081501ALPS05_6.7o_00
# 
# Raw,utcTimeMillis,TimeNanos,LeapSecond,TimeUncertaintyNanos,FullBiasNanos,BiasNanos,BiasUncertaintyNanos,DriftNanosPerSecond,DriftUncertaintyNanosPerSecond,HardwareClockDiscontinuityCount,Svid,TimeOffsetNanos,State,ReceivedSvTimeNanos,ReceivedSvTimeUncertaintyNanos,Cn0DbHz,PseudorangeRateMetersPerSecond,PseudorangeRateUncertaintyMetersPerSecond,AccumulatedDeltaRangeState,AccumulatedDeltaRangeMeters,AccumulatedDeltaRangeUncertaintyMeters,CarrierFrequencyHz,CarrierCycles,CarrierPhase,CarrierPhaseUncertainty,MultipathIndicator,SnrInDb,ConstellationType,AgcDb,BasebandCn0DbHz,FullInterSignalBiasNanos,FullInterSignalBiasUncertaintyNanos,SatelliteInterSignalBiasNanos,SatelliteInterSignalBiasUncertaintyNanos,CodeType,ChipsetElapsedRealtimeNanos,IsFullTracking,SvPositionEcefXMeters,SvPositionEcefYMeters,SvPositionEcefZMeters,SvVelocityEcefXMetersPerSecond,SvVelocityEcefYMetersPerSecond,SvVelocityEcefZMetersPerSecond,SvClockBiasMeters,SvClockDriftMetersPerSecond,KlobucharAlpha0,KlobucharAlpha1,KlobucharAlpha2,KlobucharAlpha3,KlobucharBeta0,KlobucharBeta1,KlobucharBeta2,KlobucharBeta3
# 
# UncalAccel,utcTimeMillis,elapsedRealtimeNanos,UncalAccelXMps2,UncalAccelYMps2,UncalAccelZMps2,BiasXMps2,BiasYMps2,BiasZMps2,CalibrationAccuracy
# 
# Accel,utcTimeMillis,elapsedRealtimeNanos,AccelXMps2,AccelYMps2,AccelZMps2,CalibrationAccuracy
# 
# UncalGyro,utcTimeMillis,elapsedRealtimeNanos,UncalGyroXRadPerSec,UncalGyroYRadPerSec,UncalGyroZRadPerSec,DriftXRadPerSec,DriftYRadPerSec,DriftZRadPerSec,CalibrationAccuracy
# 
# Gyro,utcTimeMillis,elapsedRealtimeNanos,GyroXRadPerSec,GyroYRadPerSec,GyroZRadPerSec,CalibrationAccuracy
# 
# UncalMag,utcTimeMillis,elapsedRealtimeNanos,UncalMagXMicroT,UncalMagYMicroT,UncalMagZMicroT,BiasXMicroT,BiasYMicroT,BiasZMicroT,CalibrationAccuracy
# 
# Mag,utcTimeMillis,elapsedRealtimeNanos,MagXMicroT,MagYMicroT,MagZMicroT,CalibrationAccuracy
# 
# Pressure,utcTimeMillis,elapsedRealtimeNanos,PressureHpa,CalibrationAccuracy
# 
# OrientationDeg,utcTimeMillis,elapsedRealtimeNanos,yawDeg,rollDeg,pitchDeg,CalibrationAccuracy
# 
# Fix,Provider,LatitudeDegrees,LongitudeDegrees,AltitudeMeters,SpeedMps,AccuracyMeters,BearingDegrees,UnixTimeMillis,SpeedAccuracyMps,BearingAccuracyDegrees,elapsedRealtimeNanos,VerticalAccuracyMeters,MockLocation,NumberOfUsedSignals,VerticalSpeedAccuracyMps,SolutionType
# 
# Nav,Svid,Type,Status,MessageId,Sub-messageId,Data(Bytes)
# 
# Status,UnixTimeMillis,SignalCount,SignalIndex,ConstellationType,Svid,CarrierFrequencyHz,Cn0DbHz,AzimuthDegrees,ElevationDegrees,UsedInFix,HasAlmanacData,HasEphemerisData,BasebandCn0DbHz
# 
# Agc,utcTimeMillis,TimeNanos,LeapSecond,TimeUncertaintyNanos,FullBiasNanos,BiasNanos,BiasUncertaintyNanos,DriftNanosPerSecond,DriftUncertaintyNanosPerSecond,HardwareClockDiscontinuityCount,AgcDb,CarrierFrequencyHz,ConstellationType
# 
# GameRotationVector,utcTimeMillis,elapsedRealtimeNanos,x,y,z,w
# 
Fix,FLP,45.0643890000,7.6592438000,301.8000183105469,0.06018072,34.755,,1774356948189,0.08561626,,932126949129565,2.4303286,0,,,
Fix,NLP,45.0643898000,7.6592372000,301.8000183105469,,20.0,,1774356948854,,,932126947000000,2.4303286,0,,,
Status,,44,0,1,16,1575420000,0.00,213.0,69.0,0,0,0,0.0
Status,,44,1,1,27,1575420000,0.00,306.0,62.0,0,0,0,0.0
Status,,44,2,1,23,1575420000,0.00,91.0,52.0,0,0,0,0.0
Status,,44,3,1,10,1575420000,0.00,149.0,43.0,0,0,0,0.0
Status,,44,4,1,26,1575420000,0.00,180.0,39.0,0,0,0,0.0
Status,,44,5,1,18,1575420000,0.00,55.0,36.0,0,0,0,0.0
Status,,44,6,1,8,1575420000,0.00,294.0,29.0,0,0,0,0.0
Status,,44,7,1,2,1575420000,0.00,244.0,10.0,0,0,0,0.0
Status,,44,8,1,7,1575420000,0.00,318.0,10.0,0,0,0,0.0
Status,,44,9,1,15,1575420000,17.70,53.0,8.0,0,0,0,17.7
Status,,44,10,1,20,1575420000,0.00,32.0,2.0,0,0,0,0.0
Status,,44,11,3,19,1602000000,0.00,296.0,62.0,0,0,0,0.0
Status,,44,12,3,9,1602000000,0.00,274.0,56.0,0,0,0,0.0
Status,,44,13,3,18,1602000000,0.00,42.0,44.0,0,0,0,0.0
Status,,44,14,3,16,1602000000,0.00,192.0,33.0,0,0,0,0.0
Status,,44,15,3,10,1602000000,0.00,327.0,25.0,0,0,0,0.0
Status,,44,16,3,3,1602000000,0.00,92.0,21.0,0,0,0,0.0
Status,,44,17,3,2,1602000000,0.00,34.0,17.0,0,0,0,0.0
Status,,44,18,3,20,1602000000,0.00,257.0,16.0,0,0,0,0.0
Status,,44,19,3,17,1602000000,0.00,63.0,3.0,0,0,0,0.0
Status,,44,20,3,4,1602000000,0.00,135.0,2.0,0,0,0,0.0
Status,,44,21,5,43,1561098000,0.00,62.0,61.0,0,0,0,0.0
Status,,44,22,5,28,1561098000,0.00,277.0,54.0,0,0,0,0.0
Status,,44,23,5,37,1561098000,0.00,284.0,43.0,0,0,0,0.0
Status,,44,24,5,23,1561098000,0.00,209.0,41.0,0,0,0,0.0
Status,,44,25,5,13,1561098000,0.00,49.0,38.0,0,0,0,0.0
Status,,44,26,5,8,1561098000,0.00,38.0,31.0,0,0,0,0.0
Status,,44,27,5,11,1561098000,0.00,69.0,31.0,0,0,0,0.0
Status,,44,28,5,56,1561098000,0.00,49.0,29.0,0,0,0,0.0
Status,,44,29,5,42,1561098000,0.00,91.0,26.0,0,0,0,0.0
Status,,44,30,5,14,1561098000,0.00,121.0,22.0,0,0,0,0.0
Status,,44,31,5,5,1561098000,0.00,119.0,18.0,0,0,0,0.0
Status,,44,32,5,38,1561098000,0.00,32.0,18.0,0,0,0,0.0
Status,,44,33,5,21,1561098000,0.00,41.0,15.0,0,0,0,0.0
Status,,44,34,5,46,1561098000,0.00,321.0,14.0,0,0,0,0.0
Status,,44,35,5,27,1561098000,0.00,265.0,13.0,0,0,0,0.0
Status,,44,36,5,33,1561098000,0.00,144.0,12.0,0,0,0,0.0
Status,,44,37,5,15,1561098000,0.00,32.0,10.0,0,0,0,0.0
Status,,44,38,5,17,1561098000,0.00,32.0,10.0,0,0,0,0.0
Status,,44,39,5,18,1561098000,0.00,32.0,10.0,0,0,0,0.0
Status,,44,40,5,31,1561098000,0.00,32.0,10.0,0,0,0,0.0
Status,,44,41,5,34,1561098000,0.00,79.0,7.0,0,0,0,0.0
Status,,44,42,5,60,1561098000,0.00,101.0,5.0,0,0,0,0.0
Status,,44,43,5,2,1561098000,0.00,98.0,2.0,0,0,0,0.0
Status,,44,0,1,16,1575420000,0.00,213.0,69.0,0,0,0,0.0
Status,,44,1,1,27,1575420000,0.00,306.0,62.0,0,0,0,0.0
Status,,44,2,1,23,1575420000,0.00,91.0,52.0,0,0,0,0.0
Status,,44,3,1,10,1575420000,0.00,149.0,43.0,0,0,0,0.0
Status,,44,4,1,26,1575420000,0.00,180.0,39.0,0,0,0,0.0
Status,,44,5,1,18,1575420000,0.00,55.0,36.0,0,0,0,0.0
Status,,44,6,1,8,1575420000,0.00,294.0,29.0,0,0,0,0.0
Status,,44,7,1,2,1575420000,0.00,244.0,10.0,0,0,0,0.0
Status,,44,8,1,7,1575420000,0.00,318.0,10.0,0,0,0,0.0
Status,,44,9,1,15,1575420000,13.40,53.0,8.0,0,0,0,13.4
Status,,44,10,1,20,1575420000,0.00,32.0,2.0,0,0,0,0.0
Status,,44,11,3,19,1602000000,0.00,296.0,62.0,0,0,0,0.0
Status,,44,12,3,9,1602000000,0.00,274.0,56.0,0,0,0,0.0
Status,,44,13,3,18,1602000000,0.00,42.0,44.0,0,0,0,0.0
Status,,44,14,3,16,1602000000,0.00,192.0,33.0,0,0,0,0.0
Status,,44,15,3,10,1602000000,0.00,327.0,25.0,0,0,0,0.0
Status,,44,16,3,3,1602000000,0.00,92.0,21.0,0,0,0,0.0
Status,,44,17,3,2,1602000000,0.00,34.0,17.0,0,0,0,0.0
Status,,44,18,3,20,1602000000,0.00,257.0,16.0,0,0,0,0.0
Status,,44,19,3,17,1602000000,0.00,63.0,3.0,0,0,0,0.0
Status,,44,20,3,4,1602000000,0.00,135.0,2.0,0,0,0,0.0
Status,,44,21,5,43,1561098000,0.00,62.0,61.0,0,0,0,0.0
Status,,44,22,5,28,1561098000,0.00,277.0,54.0,0,0,0,0.0
Status,,44,23,5,37,1561098000,0.00,284.0,43.0,0,0,0,0.0
Status,,44,24,5,23,1561098000,0.00,209.0,41.0,0,0,0,0.0
Status,,44,25,5,13,1561098000,0.00,49.0,38.0,0,0,0,0.0
Status,,44,26,5,8,1561098000,0.00,38.0,31.0,0,0,0,0.0
Status,,44,27,5,11,1561098000,0.00,69.0,31.0,0,0,0,0.0
Status,,44,28,5,56,1561098000,0.00,49.0,29.0,0,0,0,0.0
Status,,44,29,5,42,1561098000,0.00,91.0,26.0,0,0,0,0.0
Status,,44,30,5,14,1561098000,0.00,121.0,22.0,0,0,0,0.0
Status,,44,31,5,5,1561098000,0.00,119.0,18.0,0,0,0,0.0
Status,,44,32,5,38,1561098000,0.00,32.0,18.0,0,0,0,0.0
Status,,44,33,5,21,1561098000,0.00,41.0,15.0,0,0,0,0.0
Status,,44,34,5,46,1561098000,0.00,321.0,14.0,0,0,0,0.0
Status,,44,35,5,27,1561098000,0.00,265.0,13.0,0,0,0,0.0
Status,,44,36,5,33,1561098000,0.00,144.0,12.0,0,0,0,0.0
Status,,44,37,5,15,1561098000,0.00,32.0,10.0,0,0,0,0.0
Status,,44,38,5,17,1561098000,0.00,32.0,10.0,0,0,0,0.0
Status,,44,39,5,18,1561098000,0.00,32.0,10.0,0,0,0,0.0
Status,,44,40,5,31,1561098000,0.00,32.0,10.0,0,0,0,0.0
Status,,44,41,5,34,1561098000,0.00,79.0,7.0,0,0,0,0.0
Status,,44,42,5,60,1561098000,0.00,101.0,5.0,0,0,0,0.0
Status,,44,43,5,2,1561098000,0.00,98.0,2.0,0,0,0,0.0
Status,,44,0,1,16,1575420000,0.00,213.0,69.0,0,0,0,0.0
Status,,44,1,1,27,1575420000,0.00,306.0,62.0,0,0,0,0.0
Status,,44,2,1,23,1575420000,0.00,91.0,52.0,0,0,0,0.0
Status,,44,3,1,10,1575420000,0.00,149.0,43.0,0,0,0,0.0
Status,,44,4,1,26,1575420000,0.00,180.0,39.0,0,0,0,0.0
Status,,44,5,1,18,1575420000,0.00,55.0,36.0,0,0,0,0.0
Status,,44,6,1,8,1575420000,0.00,294.0,29.0,0,0,0,0.0
Status,,44,7,1,2,1575420000,0.00,244.0,10.0,0,0,0,0.0
Status,,44,8,1,7,1575420000,0.00,318.0,10.0,0,0,0,0.0
Status,,44,9,1,15,1575420000,13.40,53.0,8.0,0,0,0,13.4
Status,,44,10,1,20,1575420000,0.00,32.0,2.0,0,0,0,0.0
Status,,44,11,3,19,1602000000,0.00,296.0,62.0,0,0,0,0.0
Status,,44,12,3,9,1602000000,0.00,274.0,56.0,0,0,0,0.0
Status,,44,13,3,18,1602000000,0.00,42.0,44.0,0,0,0,0.0
Status,,44,14,3,16,1602000000,0.00,192.0,33.0,0,0,0,0.0
Status,,44,15,3,10,1602000000,0.00,327.0,25.0,0,0,0,0.0
Status,,44,16,3,3,1602000000,0.00,92.0,21.0,0,0,0,0.0
Status,,44,17,3,2,1602000000,0.00,34.0,17.0,0,0,0,0.0
Status,,44,18,3,20,1602000000,0.00,257.0,16.0,0,0,0,0.0
Status,,44,19,3,17,1602000000,0.00,63.0,3.0,0,0,0,0.0
Status,,44,20,3,4,1602000000,0.00,135.0,2.0,0,0,0,0.0
Status,,44,21,5,43,1561098000,0.00,62.0,61.0,0,0,0,0.0
Status,,44,22,5,28,1561098000,0.00,277.0,54.0,0,0,0,0.0
Status,,44,23,5,37,1561098000,0.00,284.0,43.0,0,0,0,0.0
Status,,44,24,5,23,1561098000,0.00,209.0,41.0,0,0,0,0.0
Status,,44,25,5,13,1561098000,0.00,49.0,38.0,0,0,0,0.0
Status,,44,26,5,8,1561098000,0.00,38.0,31.0,0,0,0,0.0
Status,,44,27,5,11,1561098000,0.00,69.0,31.0,0,0,0,0.0
Status,,44,28,5,56,1561098000,0.00,49.0,29.0,0,0,0,0.0
Status,,44,29,5,42,1561098000,0.00,91.0,26.0,0,0,0,0.0
Status,,44,30,5,14,1561098000,0.00,121.0,22.0,0,0,0,0.0
Status,,44,31,5,5,1561098000,0.00,119.0,18.0,0,0,0,0.0
Status,,44,32,5,38,1561098000,0.00,32.0,18.0,0,0,0,0.0
Status,,44,33,5,21,1561098000,0.00,41.0,15.0,0,0,0,0.0
Status,,44,34,5,46,1561098000,0.00,321.0,14.0,0,0,0,0.0
Status,,44,35,5,27,1561098000,0.00,265.0,13.0,0,0,0,0.0
Status,,44,36,5,33,1561098000,0.00,144.0,12.0,0,0,0,0.0
Status,,44,37,5,15,1561098000,0.00,32.0,10.0,0,0,0,0.0
Status,,44,38,5,17,1561098000,0.00,32.0,10.0,0,0,0,0.0
Status,,44,39,5,18,1561098000,0.00,32.0,10.0,0,0,0,0.0
Status,,44,40,5,31,1561098000,0.00,32.0,10.0,0,0,0,0.0
Status,,44,41,5,34,1561098000,0.00,79.0,7.0,0,0,0,0.0
Status,,44,42,5,60,1561098000,0.00,101.0,5.0,0,0,0,0.0
Status,,44,43,5,2,1561098000,0.00,98.0,2.0,0,0,0,0.0
Status,,44,0,1,16,1575420000,0.00,213.0,69.0,0,0,0,0.0
Status,,44,1,1,27,1575420000,0.00,306.0,62.0,0,0,0,0.0
Status,,44,2,1,23,1575420000,0.00,91.0,52.0,0,0,0,0.0
Status,,44,3,1,10,1575420000,0.00,149.0,43.0,0,0,0,0.0
Status,,44,4,1,26,1575420000,0.00,180.0,39.0,0,0,0,0.0
Status,,44,5,1,18,1575420000,0.00,55.0,36.0,0,0,0,0.0
Status,,44,6,1,8,1575420000,0.00,294.0,29.0,0,0,0,0.0
Status,,44,7,1,2,1575420000,0.00,244.0,10.0,0,0,0,0.0
Status,,44,8,1,7,1575420000,0.00,318.0,10.0,0,0,0,0.0
Status,,44,9,1,15,1575420000,13.40,53.0,8.0,0,0,0,13.4
Status,,44,10,1,20,1575420000,0.00,32.0,2.0,0,0,0,0.0
Status,,44,11,3,19,1602000000,0.00,296.0,62.0,0,0,0,0.0
Status,,44,12,3,9,1602000000,0.00,274.0,56.0,0,0,0,0.0
Status,,44,13,3,18,1602000000,0.00,42.0,44.0,0,0,0,0.0
Status,,44,14,3,16,1602000000,0.00,192.0,33.0,0,0,0,0.0
Status,,44,15,3,10,1602000000,0.00,327.0,25.0,0,0,0,0.0
Status,,44,16,3,3,1602000000,0.00,92.0,21.0,0,0,0,0.0
Status,,44,17,3,2,1602000000,0.00,34.0,17.0,0,0,0,0.0
Status,,44,18,3,20,1602000000,0.00,257.0,16.0,0,0,0,0.0
Status,,44,19,3,17,1602000000,0.00,63.0,3.0,0,0,0,0.0
Status,,44,20,3,4,1602000000,0.00,135.0,2.0,0,0,0,0.0
Status,,44,21,5,43,1561098000,0.00,62.0,61.0,0,0,0,0.0
Status,,44,22,5,28,1561098000,0.00,277.0,54.0,0,0,0,0.0
Status,,44,23,5,37,1561098000,0.00,284.0,43.0,0,0,0,0.0
Status,,44,24,5,23,1561098000,0.00,209.0,41.0,0,0,0,0.0
Status,,44,25,5,13,1561098000,0.00,49.0,38.0,0,0,0,0.0
Status,,44,26,5,8,1561098000,0.00,38.0,31.0,0,0,0,0.0
Status,,44,27,5,11,1561098000,0.00,69.0,31.0,0,0,0,0.0
Status,,44,28,5,56,1561098000,0.00,49.0,29.0,0,0,0,0.0
Status,,44,29,5,42,1561098000,0.00,91.0,26.0,0,0,0,0.0
Status,,44,30,5,14,1561098000,0.00,121.0,22.0,0,0,0,0.0
Status,,44,31,5,5,1561098000,0.00,119.0,18.0,0,0,0,0.0
Status,,44,32,5,38,1561098000,0.00,32.0,18.0,0,0,0,0.0
Status,,44,33,5,21,1561098000,0.00,41.0,15.0,0,0,0,0.0
Status,,44,34,5,46,1561098000,0.00,321.0,14.0,0,0,0,0.0
Status,,44,35,5,27,1561098000,0.00,265.0,13.0,0,0,0,0.0
Status,,44,36,5,33,1561098000,0.00,144.0,12.0,0,0,0,0.0
Status,,44,37,5,15,1561098000,0.00,32.0,10.0,0,0,0,0.0
Status,,44,38,5,17,1561098000,0.00,32.0,10.0,0,0,0,0.0
Status,,44,39,5,18,1561098000,0.00,32.0,10.0,0,0,0,0.0
Status,,44,40,5,31,1561098000,0.00,32.0,10.0,0,0,0,0.0
Status,,44,41,5,34,1561098000,0.00,79.0,7.0,0,0,0,0.0
Status,,44,42,5,60,1561098000,0.00,101.0,5.0,0,0,0,0.0
Status,,44,43,5,2,1561098000,0.00,98.0,2.0,0,0,0,0.0
Status,,21,0,1,16,1575420000,0.00,213.0,69.0,0,0,0,0.0
Status,,21,1,1,27,1575420000,0.00,306.0,62.0,0,0,0,0.0
Status,,21,2,1,23,1575420000,0.00,91.0,52.0,0,0,0,0.0
Status,,21,3,1,10,1575420000,0.00,149.0,43.0,0,0,0,0.0
Status,,21,4,1,26,1575420000,0.00,180.0,39.0,0,0,0,0.0
Status,,21,5,1,18,1575420000,0.00,55.0,36.0,0,0,0,0.0
Status,,21,6,1,8,1575420000,0.00,294.0,29.0,0,0,0,0.0
Status,,21,7,1,2,1575420000,0.00,244.0,10.0,0,0,0,0.0
Status,,21,8,1,7,1575420000,0.00,318.0,10.0,0,0,0,0.0
Status,,21,9,1,15,1575420000,0.00,53.0,8.0,0,0,0,0.0
Status,,21,10,1,20,1575420000,0.00,32.0,2.0,0,0,0,0.0
Status,,21,11,3,19,1602000000,0.00,296.0,62.0,0,0,0,0.0
Status,,21,12,3,9,1602000000,0.00,274.0,56.0,0,0,0,0.0
Status,,21,13,3,18,1602000000,0.00,42.0,44.0,0,0,0,0.0
Status,,21,14,3,16,1602000000,0.00,192.0,33.0,0,0,0,0.0
Status,,21,15,3,10,1602000000,0.00,327.0,25.0,0,0,0,0.0
Status,,21,16,3,3,1602000000,0.00,92.0,21.0,0,0,0,0.0
Status,,21,17,3,2,1602000000,0.00,34.0,17.0,0,0,0,0.0
Status,,21,18,3,20,1602000000,0.00,257.0,16.0,0,0,0,0.0
Status,,21,19,3,17,1602000000,0.00,63.0,3.0,0,0,0,0.0
Status,,21,20,3,4,1602000000,0.00,135.0,2.0,0,0,0,0.0
Status,,21,0,1,16,1575420000,0.00,213.0,69.0,0,0,0,0.0
Status,,21,1,1,27,1575420000,0.00,306.0,62.0,0,0,0,0.0
Status,,21,2,1,23,1575420000,0.00,91.0,52.0,0,0,0,0.0
Status,,21,3,1,10,1575420000,0.00,149.0,43.0,0,0,0,0.0
Status,,21,4,1,26,1575420000,0.00,180.0,39.0,0,0,0,0.0
Status,,21,5,1,18,1575420000,0.00,55.0,36.0,0,0,0,0.0
Status,,21,6,1,8,1575420000,0.00,294.0,29.0,0,0,0,0.0
Status,,21,7,1,2,1575420000,0.00,244.0,10.0,0,0,0,0.0
Status,,21,8,1,7,1575420000,0.00,318.0,10.0,0,0,0,0.0
Status,,21,9,1,15,1575420000,0.00,53.0,8.0,0,0,0,0.0
Status,,21,10,1,20,1575420000,0.00,32.0,2.0,0,0,0,0.0
Status,,21,11,3,19,1602000000,0.00,296.0,62.0,0,0,0,0.0
Status,,21,12,3,9,1602000000,0.00,274.0,56.0,0,0,0,0.0
Status,,21,13,3,18,1602000000,0.00,42.0,44.0,0,0,0,0.0
Status,,21,14,3,16,1602000000,0.00,192.0,33.0,0,0,0,0.0
Status,,21,15,3,10,1602000000,0.00,327.0,25.0,0,0,0,0.0
Status,,21,16,3,3,1602000000,0.00,92.0,21.0,0,0,0,0.0
Status,,21,17,3,2,1602000000,0.00,34.0,17.0,0,0,0,0.0
Status,,21,18,3,20,1602000000,0.00,257.0,16.0,0,0,0,0.0
Status,,21,19,3,17,1602000000,0.00,63.0,3.0,0,0,0,0.0
Status,,21,20,3,4,1602000000,0.00,135.0,2.0,0,0,0,0.0
Status,,44,0,1,16,1575420000,0.00,213.0,69.0,0,0,0,0.0
Status,,44,1,1,27,1575420000,0.00,306.0,62.0,0,0,0,0.0
Status,,44,2,1,23,1575420000,0.00,91.0,52.0,0,0,0,0.0
Status,,44,3,1,10,1575420000,0.00,149.0,43.0,0,0,0,0.0
Status,,44,4,1,26,1575420000,0.00,180.0,39.0,0,0,0,0.0
Status,,44,5,1,18,1575420000,0.00,55.0,36.0,0,0,0,0.0
Status,,44,6,1,8,1575420000,0.00,294.0,29.0,0,0,0,0.0
Status,,44,7,1,2,1575420000,0.00,244.0,10.0,0,0,0,0.0
Status,,44,8,1,7,1575420000,0.00,318.0,10.0,0,0,0,0.0
Status,,44,9,1,15,1575420000,12.20,53.0,8.0,0,0,0,12.2
Status,,44,10,1,20,1575420000,0.00,32.0,2.0,0,0,0,0.0
Status,,44,11,3,19,1602000000,0.00,296.0,62.0,0,0,0,0.0
Status,,44,12,3,9,1602000000,0.00,274.0,56.0,0,0,0,0.0
Status,,44,13,3,18,1602000000,0.00,42.0,44.0,0,0,0,0.0
Status,,44,14,3,16,1602000000,0.00,192.0,33.0,0,0,0,0.0
Status,,44,15,3,10,1602000000,0.00,327.0,25.0,0,0,0,0.0
Status,,44,16,3,3,1602000000,0.00,92.0,21.0,0,0,0,0.0
Status,,44,17,3,2,1602000000,0.00,34.0,17.0,0,0,0,0.0
Status,,44,18,3,20,1602000000,0.00,257.0,16.0,0,0,0,0.0
Status,,44,19,3,17,1602000000,0.00,63.0,3.0,0,0,0,0.0
Status,,44,20,3,4,1602000000,0.00,135.0,2.0,0,0,0,0.0
Status,,44,21,5,43,1561098000,0.00,62.0,61.0,0,0,0,0.0
Status,,44,22,5,28,1561098000,0.00,277.0,54.0,0,0,0,0.0
Status,,44,23,5,37,1561098000,0.00,284.0,43.0,0,0,0,0.0
Status,,44,24,5,23,1561098000,0.00,209.0,41.0,0,0,0,0.0
Status,,44,25,5,13,1561098000,0.00,49.0,38.0,0,0,0,0.0
Status,,44,26,5,8,1561098000,0.00,38.0,31.0,0,0,0,0.0
Status,,44,27,5,11,1561098000,0.00,69.0,31.0,0,0,0,0.0
Status,,44,28,5,56,1561098000,0.00,49.0,29.0,0,0,0,0.0
Status,,44,29,5,42,1561098000,0.00,91.0,26.0,0,0,0,0.0
Status,,44,30,5,14,1561098000,0.00,121.0,22.0,0,0,0,0.0
Status,,44,31,5,5,1561098000,0.00,119.0,18.0,0,0,0,0.0
Status,,44,32,5,38,1561098000,0.00,32.0,18.0,0,0,0,0.0
Status,,44,33,5,21,1561098000,0.00,41.0,15.0,0,0,0,0.0
Status,,44,34,5,46,1561098000,0.00,321.0,14.0,0,0,0,0.0
Status,,44,35,5,27,1561098000,0.00,265.0,13.0,0,0,0,0.0
Status,,44,36,5,33,1561098000,0.00,144.0,12.0,0,0,0,0.0
Status,,44,37,5,15,1561098000,0.00,32.0,10.0,0,0,0,0.0
Status,,44,38,5,17,1561098000,0.00,32.0,10.0,0,0,0,0.0
Status,,44,39,5,18,1561098000,0.00,32.0,10.0,0,0,0,0.0
Status,,44,40,5,31,1561098000,0.00,32.0,10.0,0,0,0,0.0
Status,,44,41,5,34,1561098000,0.00,79.0,7.0,0,0,0,0.0
Status,,44,42,5,60,1561098000,0.00,101.0,5.0,0,0,0,0.0
Status,,44,43,5,2,1561098000,0.00,98.0,2.0,0,0,0,0.0
Status,,44,0,1,16,1575420000,0.00,213.0,69.0,0,0,0,0.0
Status,,44,1,1,27,1575420000,0.00,306.0,62.0,0,0,0,0.0
Status,,44,2,1,23,1575420000,0.00,91.0,52.0,0,0,0,0.0
Status,,44,3,1,10,1575420000,0.00,149.0,43.0,0,0,0,0.0
Status,,44,4,1,26,1575420000,0.00,180.0,39.0,0,0,0,0.0
Status,,44,5,1,18,1575420000,0.00,55.0,36.0,0,0,0,0.0
Status,,44,6,1,8,1575420000,0.00,294.0,29.0,0,0,0,0.0
Status,,44,7,1,2,1575420000,0.00,244.0,10.0,0,0,0,0.0
Status,,44,8,1,7,1575420000,0.00,318.0,10.0,0,0,0,0.0
Status,,44,9,1,15,1575420000,12.20,53.0,8.0,0,0,0,12.2
Status,,44,10,1,20,1575420000,0.00,32.0,2.0,0,0,0,0.0
Status,,44,11,3,19,1602000000,0.00,296.0,62.0,0,0,0,0.0
Status,,44,12,3,9,1602000000,0.00,274.0,56.0,0,0,0,0.0
Status,,44,13,3,18,1602000000,0.00,42.0,44.0,0,0,0,0.0
Status,,44,14,3,16,1602000000,0.00,192.0,33.0,0,0,0,0.0
Status,,44,15,3,10,1602000000,0.00,327.0,25.0,0,0,0,0.0
Status,,44,16,3,3,1602000000,0.00,92.0,21.0,0,0,0,0.0
Status,,44,17,3,2,1602000000,0.00,34.0,17.0,0,0,0,0.0
Status,,44,18,3,20,1602000000,0.00,257.0,16.0,0,0,0,0.0
Status,,44,19,3,17,1602000000,0.00,63.0,3.0,0,0,0,0.0
Status,,44,20,3,4,1602000000,0.00,135.0,2.0,0,0,0,0.0
Status,,44,21,5,43,1561098000,0.00,62.0,61.0,0,0,0,0.0
Status,,44,22,5,28,1561098000,0.00,277.0,54.0,0,0,0,0.0
Status,,44,23,5,37,1561098000,0.00,284.0,43.0,0,0,0,0.0
Status,,44,24,5,23,1561098000,0.00,209.0,41.0,0,0,0,0.0
Status,,44,25,5,13,1561098000,0.00,49.0,38.0,0,0,0,0.0
Status,,44,26,5,8,1561098000,0.00,38.0,31.0,0,0,0,0.0
Status,,44,27,5,11,1561098000,0.00,69.0,31.0,0,0,0,0.0
Status,,44,28,5,56,1561098000,0.00,49.0,29.0,0,0,0,0.0
Status,,44,29,5,42,1561098000,0.00,91.0,26.0,0,0,0,0.0
Status,,44,30,5,14,1561098000,0.00,121.0,22.0,0,0,0,0.0
Status,,44,31,5,5,1561098000,0.00,119.0,18.0,0,0,0,0.0
Status,,44,32,5,38,1561098000,0.00,32.0,18.0,0,0,0,0.0
Status,,44,33,5,21,1561098000,0.00,41.0,15.0,0,0,0,0.0
Status,,44,34,5,46,1561098000,0.00,321.0,14.0,0,0,0,0.0
Status,,44,35,5,27,1561098000,0.00,265.0,13.0,0,0,0,0.0
Status,,44,36,5,33,1561098000,0.00,144.0,12.0,0,0,0,0.0
Status,,44,37,5,15,1561098000,0.00,32.0,10.0,0,0,0,0.0
Status,,44,38,5,17,1561098000,0.00,32.0,10.0,0,0,0,0.0
Status,,44,39,5,18,1561098000,0.00,32.0,10.0,0,0,0,0.0
Status,,44,40,5,31,1561098000,0.00,32.0,10.0,0,0,0,0.0
Status,,44,41,5,34,1561098000,0.00,79.0,7.0,0,0,0,0.0
Status,,44,42,5,60,1561098000,0.00,101.0,5.0,0,0,0,0.0
Status,,44,43,5,2,1561098000,0.00,98.0,2.0,0,0,0,0.0
Fix,FLP,45.0643898000,7.6592369000,301.8000183105469,0.060190257,20.0,,1774356955546,1.5,,932134306000000,2.1984441,0,,,
Fix,NLP,45.0643896000,7.6592364000,301.8000183105469,,20.0,,1774356956213,,,932134306000000,2.1984441,0,,,
Status,,44,0,1,16,1575420000,0.00,213.0,69.0,0,0,0,0.0
Status,,44,1,1,27,1575420000,0.00,306.0,62.0,0,0,0,0.0
Status,,44,2,1,23,1575420000,0.00,91.0,52.0,0,0,0,0.0
Status,,44,3,1,10,1575420000,0.00,149.0,43.0,0,0,0,0.0
Status,,44,4,1,26,1575420000,0.00,180.0,39.0,0,0,0,0.0
Status,,44,5,1,18,1575420000,0.00,55.0,36.0,0,0,0,0.0
Status,,44,6,1,8,1575420000,0.00,294.0,29.0,0,0,0,0.0
Status,,44,7,1,2,1575420000,0.00,244.0,10.0,0,0,0,0.0
Status,,44,8,1,7,1575420000,0.00,318.0,10.0,0,0,0,0.0
Status,,44,9,1,15,1575420000,12.20,53.0,8.0,0,0,0,12.2
Status,,44,10,1,20,1575420000,0.00,32.0,2.0,0,0,0,0.0
Status,,44,11,3,19,1602000000,0.00,296.0,62.0,0,0,0,0.0
Status,,44,12,3,9,1602000000,0.00,274.0,56.0,0,0,0,0.0
Status,,44,13,3,18,1602000000,0.00,42.0,44.0,0,0,0,0.0
Status,,44,14,3,16,1602000000,0.00,192.0,33.0,0,0,0,0.0
Status,,44,15,3,10,1602000000,0.00,327.0,25.0,0,0,0,0.0
Status,,44,16,3,3,1602000000,0.00,92.0,21.0,0,0,0,0.0
Status,,44,17,3,2,1602000000,0.00,34.0,17.0,0,0,0,0.0
Status,,44,18,3,20,1602000000,0.00,257.0,16.0,0,0,0,0.0
Status,,44,19,3,17,1602000000,0.00,63.0,3.0,0,0,0,0.0
Status,,44,20,3,4,1602000000,0.00,135.0,2.0,0,0,0,0.0
Status,,44,21,5,43,1561098000,0.00,62.0,61.0,0,0,0,0.0
Status,,44,22,5,28,1561098000,0.00,277.0,54.0,0,0,0,0.0
Status,,44,23,5,37,1561098000,0.00,284.0,43.0,0,0,0,0.0
Status,,44,24,5,23,1561098000,0.00,209.0,41.0,0,0,0,0.0
Status,,44,25,5,13,1561098000,0.00,49.0,38.0,0,0,0,0.0
Status,,44,26,5,8,1561098000,0.00,38.0,31.0,0,0,0,0.0
Status,,44,27,5,11,1561098000,0.00,69.0,31.0,0,0,0,0.0
Status,,44,28,5,56,1561098000,0.00,49.0,29.0,0,0,0,0.0
Status,,44,29,5,42,1561098000,0.00,91.0,26.0,0,0,0,0.0
Status,,44,30,5,14,1561098000,0.00,121.0,22.0,0,0,0,0.0
Status,,44,31,5,5,1561098000,0.00,119.0,18.0,0,0,0,0.0
Status,,44,32,5,38,1561098000,0.00,32.0,18.0,0,0,0,0.0
Status,,44,33,5,21,1561098000,0.00,41.0,15.0,0,0,0,0.0
Status,,44,34,5,46,1561098000,0.00,321.0,14.0,0,0,0,0.0
Status,,44,35,5,27,1561098000,0.00,265.0,13.0,0,0,0,0.0
Status,,44,36,5,33,1561098000,0.00,144.0,12.0,0,0,0,0.0
Status,,44,37,5,15,1561098000,0.00,32.0,10.0,0,0,0,0.0
Status,,44,38,5,17,1561098000,0.00,32.0,10.0,0,0,0,0.0
Status,,44,39,5,18,1561098000,0.00,32.0,10.0,0,0,0,0.0
Status,,44,40,5,31,1561098000,0.00,32.0,10.0,0,0,0,0.0
Status,,44,41,5,34,1561098000,0.00,79.0,7.0,0,0,0,0.0
Status,,44,42,5,60,1561098000,0.00,101.0,5.0,0,0,0,0.0
Status,,44,43,5,2,1561098000,0.00,98.0,2.0,0,0,0,0.0
Status,,44,0,1,16,1575420000,0.00,213.0,69.0,0,0,0,0.0
Status,,44,1,1,27,1575420000,0.00,306.0,62.0,0,0,0,0.0
Status,,44,2,1,23,1575420000,0.00,91.0,52.0,0,0,0,0.0
Status,,44,3,1,10,1575420000,0.00,149.0,43.0,0,0,0,0.0
Status,,44,4,1,26,1575420000,0.00,180.0,39.0,0,0,0,0.0
Status,,44,5,1,18,1575420000,0.00,55.0,36.0,0,0,0,0.0
Status,,44,6,1,8,1575420000,0.00,294.0,29.0,0,0,0,0.0
Status,,44,7,1,2,1575420000,0.00,244.0,10.0,0,0,0,0.0
Status,,44,8,1,7,1575420000,0.00,318.0,10.0,0,0,0,0.0
Status,,44,9,1,15,1575420000,12.80,53.0,8.0,0,0,0,12.8
Status,,44,10,1,20,1575420000,0.00,32.0,2.0,0,0,0,0.0
Status,,44,11,3,19,1602000000,0.00,296.0,62.0,0,0,0,0.0
Status,,44,12,3,9,1602000000,0.00,274.0,56.0,0,0,0,0.0
Status,,44,13,3,18,1602000000,0.00,42.0,44.0,0,0,0,0.0
Status,,44,14,3,16,1602000000,0.00,192.0,33.0,0,0,0,0.0
Status,,44,15,3,10,1602000000,0.00,327.0,25.0,0,0,0,0.0
Status,,44,16,3,3,1602000000,0.00,92.0,21.0,0,0,0,0.0
Status,,44,17,3,2,1602000000,0.00,34.0,17.0,0,0,0,0.0
Status,,44,18,3,20,1602000000,0.00,257.0,16.0,0,0,0,0.0
Status,,44,19,3,17,1602000000,0.00,63.0,3.0,0,0,0,0.0
Status,,44,20,3,4,1602000000,0.00,135.0,2.0,0,0,0,0.0
Status,,44,21,5,43,1561098000,0.00,62.0,61.0,0,0,0,0.0
Status,,44,22,5,28,1561098000,0.00,277.0,54.0,0,0,0,0.0
Status,,44,23,5,37,1561098000,0.00,284.0,43.0,0,0,0,0.0
Status,,44,24,5,23,1561098000,0.00,209.0,41.0,0,0,0,0.0
Status,,44,25,5,13,1561098000,0.00,49.0,38.0,0,0,0,0.0
Status,,44,26,5,8,1561098000,0.00,38.0,31.0,0,0,0,0.0
Status,,44,27,5,11,1561098000,0.00,69.0,31.0,0,0,0,0.0
Status,,44,28,5,56,1561098000,0.00,49.0,29.0,0,0,0,0.0
Status,,44,29,5,42,1561098000,0.00,91.0,26.0,0,0,0,0.0
Status,,44,30,5,14,1561098000,0.00,121.0,22.0,0,0,0,0.0
Status,,44,31,5,5,1561098000,0.00,119.0,18.0,0,0,0,0.0
Status,,44,32,5,38,1561098000,0.00,32.0,18.0,0,0,0,0.0
Status,,44,33,5,21,1561098000,0.00,41.0,15.0,0,0,0,0.0
Status,,44,34,5,46,1561098000,0.00,321.0,14.0,0,0,0,0.0
Status,,44,35,5,27,1561098000,0.00,265.0,13.0,0,0,0,0.0
Status,,44,36,5,33,1561098000,0.00,144.0,12.0,0,0,0,0.0
Status,,44,37,5,15,1561098000,0.00,32.0,10.0,0,0,0,0.0
Status,,44,38,5,17,1561098000,0.00,32.0,10.0,0,0,0,0.0
Status,,44,39,5,18,1561098000,0.00,32.0,10.0,0,0,0,0.0
Status,,44,40,5,31,1561098000,0.00,32.0,10.0,0,0,0,0.0
Status,,44,41,5,34,1561098000,0.00,79.0,7.0,0,0,0,0.0
Status,,44,42,5,60,1561098000,0.00,101.0,5.0,0,0,0,0.0
Status,,44,43,5,2,1561098000,0.00,98.0,2.0,0,0,0,0.0
Status,,44,0,1,16,1575420000,0.00,213.0,69.0,0,0,0,0.0
Status,,44,1,1,27,1575420000,0.00,306.0,62.0,0,0,0,0.0
Status,,44,2,1,23,1575420000,0.00,91.0,52.0,0,0,0,0.0
Status,,44,3,1,10,1575420000,0.00,149.0,43.0,0,0,0,0.0
Status,,44,4,1,26,1575420000,0.00,180.0,39.0,0,0,0,0.0
Status,,44,5,1,18,1575420000,0.00,55.0,36.0,0,0,0,0.0
Status,,44,6,1,8,1575420000,0.00,294.0,29.0,0,0,0,0.0
Status,,44,7,1,2,1575420000,0.00,244.0,10.0,0,0,0,0.0
Status,,44,8,1,7,1575420000,0.00,318.0,10.0,0,0,0,0.0
Status,,44,9,1,15,1575420000,12.80,53.0,8.0,0,0,0,12.8
Status,,44,10,1,20,1575420000,0.00,32.0,2.0,0,0,0,0.0
Status,,44,11,3,19,1602000000,0.00,296.0,62.0,0,0,0,0.0
Status,,44,12,3,9,1602000000,0.00,274.0,56.0,0,0,0,0.0
Status,,44,13,3,18,1602000000,0.00,42.0,44.0,0,0,0,0.0
Status,,44,14,3,16,1602000000,0.00,192.0,33.0,0,0,0,0.0
Status,,44,15,3,10,1602000000,0.00,327.0,25.0,0,0,0,0.0
Status,,44,16,3,3,1602000000,0.00,92.0,21.0,0,0,0,0.0
Status,,44,17,3,2,1602000000,0.00,34.0,17.0,0,0,0,0.0
Status,,44,18,3,20,1602000000,0.00,257.0,16.0,0,0,0,0.0
Status,,44,19,3,17,1602000000,0.00,63.0,3.0,0,0,0,0.0
Status,,44,20,3,4,1602000000,0.00,135.0,2.0,0,0,0,0.0
Status,,44,21,5,43,1561098000,0.00,62.0,61.0,0,0,0,0.0
Status,,44,22,5,28,1561098000,0.00,277.0,54.0,0,0,0,0.0
Status,,44,23,5,37,1561098000,0.00,284.0,43.0,0,0,0,0.0
Status,,44,24,5,23,1561098000,0.00,209.0,41.0,0,0,0,0.0
Status,,44,25,5,13,1561098000,0.00,49.0,38.0,0,0,0,0.0
Status,,44,26,5,8,1561098000,0.00,38.0,31.0,0,0,0,0.0
Status,,44,27,5,11,1561098000,0.00,69.0,31.0,0,0,0,0.0
Status,,44,28,5,56,1561098000,0.00,49.0,29.0,0,0,0,0.0
Status,,44,29,5,42,1561098000,0.00,91.0,26.0,0,0,0,0.0
Status,,44,30,5,14,1561098000,0.00,121.0,22.0,0,0,0,0.0
Status,,44,31,5,5,1561098000,0.00,119.0,18.0,0,0,0,0.0
Status,,44,32,5,38,1561098000,0.00,32.0,18.0,0,0,0,0.0
Status,,44,33,5,21,1561098000,0.00,41.0,15.0,0,0,0,0.0
Status,,44,34,5,46,1561098000,0.00,321.0,14.0,0,0,0,0.0
Status,,44,35,5,27,1561098000,0.00,265.0,13.0,0,0,0,0.0
Status,,44,36,5,33,1561098000,0.00,144.0,12.0,0,0,0,0.0
Status,,44,37,5,15,1561098000,0.00,32.0,10.0,0,0,0,0.0
Status,,44,38,5,17,1561098000,0.00,32.0,10.0,0,0,0,0.0
Status,,44,39,5,18,1561098000,0.00,32.0,10.0,0,0,0,0.0
Status,,44,40,5,31,1561098000,0.00,32.0,10.0,0,0,0,0.0
Status,,44,41,5,34,1561098000,0.00,79.0,7.0,0,0,0,0.0
Status,,44,42,5,60,1561098000,0.00,101.0,5.0,0,0,0,0.0
Status,,44,43,5,2,1561098000,0.00,98.0,2.0,0,0,0,0.0
Status,,44,0,1,16,1575420000,0.00,213.0,69.0,0,0,0,0.0
Status,,44,1,1,27,1575420000,0.00,306.0,62.0,0,0,0,0.0
Status,,44,2,1,23,1575420000,0.00,91.0,52.0,0,0,0,0.0
Status,,44,3,1,10,1575420000,0.00,149.0,43.0,0,0,0,0.0
Status,,44,4,1,26,1575420000,0.00,180.0,39.0,0,0,0,0.0
Status,,44,5,1,18,1575420000,0.00,55.0,36.0,0,0,0,0.0
Status,,44,6,1,8,1575420000,0.00,294.0,29.0,0,0,0,0.0
Status,,44,7,1,2,1575420000,0.00,244.0,10.0,0,0,0,0.0
Status,,44,8,1,7,1575420000,0.00,318.0,10.0,0,0,0,0.0
Status,,44,9,1,15,1575420000,13.00,53.0,8.0,0,0,0,13.0
Status,,44,10,1,20,1575420000,0.00,32.0,2.0,0,0,0,0.0
Status,,44,11,3,19,1602000000,0.00,296.0,62.0,0,0,0,0.0
Status,,44,12,3,9,1602000000,0.00,274.0,56.0,0,0,0,0.0
Status,,44,13,3,18,1602000000,0.00,42.0,44.0,0,0,0,0.0
Status,,44,14,3,16,1602000000,0.00,192.0,33.0,0,0,0,0.0
Status,,44,15,3,10,1602000000,0.00,327.0,25.0,0,0,0,0.0
Status,,44,16,3,3,1602000000,0.00,92.0,21.0,0,0,0,0.0
Status,,44,17,3,2,1602000000,0.00,34.0,17.0,0,0,0,0.0
Status,,44,18,3,20,1602000000,0.00,257.0,16.0,0,0,0,0.0
Status,,44,19,3,17,1602000000,0.00,63.0,3.0,0,0,0,0.0
Status,,44,20,3,4,1602000000,0.00,135.0,2.0,0,0,0,0.0
Status,,44,21,5,43,1561098000,0.00,62.0,61.0,0,0,0,0.0
Status,,44,22,5,28,1561098000,0.00,277.0,54.0,0,0,0,0.0
Status,,44,23,5,37,1561098000,0.00,284.0,43.0,0,0,0,0.0
Status,,44,24,5,23,1561098000,0.00,209.0,41.0,0,0,0,0.0
Status,,44,25,5,13,1561098000,0.00,49.0,38.0,0,0,0,0.0
Status,,44,26,5,8,1561098000,0.00,38.0,31.0,0,0,0,0.0
Status,,44,27,5,11,1561098000,0.00,69.0,31.0,0,0,0,0.0
Status,,44,28,5,56,1561098000,0.00,49.0,29.0,0,0,0,0.0
Status,,44,29,5,42,1561098000,0.00,91.0,26.0,0,0,0,0.0
Status,,44,30,5,14,1561098000,0.00,121.0,22.0,0,0,0,0.0
Status,,44,31,5,5,1561098000,0.00,119.0,18.0,0,0,0,0.0
Status,,44,32,5,38,1561098000,0.00,32.0,18.0,0,0,0,0.0
Status,,44,33,5,21,1561098000,0.00,41.0,15.0,0,0,0,0.0
Status,,44,34,5,46,1561098000,0.00,321.0,14.0,0,0,0,0.0
Status,,44,35,5,27,1561098000,0.00,265.0,13.0,0,0,0,0.0
Status,,44,36,5,33,1561098000,0.00,144.0,12.0,0,0,0,0.0
Status,,44,37,5,15,1561098000,0.00,32.0,10.0,0,0,0,0.0
Status,,44,38,5,17,1561098000,0.00,32.0,10.0,0,0,0,0.0
Status,,44,39,5,18,1561098000,0.00,32.0,10.0,0,0,0,0.0
Status,,44,40,5,31,1561098000,0.00,32.0,10.0,0,0,0,0.0
Status,,44,41,5,34,1561098000,0.00,79.0,7.0,0,0,0,0.0
Status,,44,42,5,60,1561098000,0.00,101.0,5.0,0,0,0,0.0
Status,,44,43,5,2,1561098000,0.00,98.0,2.0,0,0,0,0.0
Status,,44,0,1,16,1575420000,0.00,213.0,69.0,0,0,0,0.0
Status,,44,1,1,27,1575420000,0.00,306.0,62.0,0,0,0,0.0
Status,,44,2,1,23,1575420000,0.00,91.0,52.0,0,0,0,0.0
Status,,44,3,1,10,1575420000,0.00,149.0,43.0,0,0,0,0.0
Status,,44,4,1,26,1575420000,0.00,180.0,39.0,0,0,0,0.0
Status,,44,5,1,18,1575420000,0.00,55.0,36.0,0,0,0,0.0
Status,,44,6,1,8,1575420000,0.00,294.0,29.0,0,0,0,0.0
Status,,44,7,1,2,1575420000,0.00,244.0,10.0,0,0,0,0.0
Status,,44,8,1,7,1575420000,0.00,318.0,10.0,0,0,0,0.0
Status,,44,9,1,15,1575420000,13.10,53.0,8.0,0,0,0,13.1
Status,,44,10,1,20,1575420000,0.00,32.0,2.0,0,0,0,0.0
Status,,44,11,3,19,1602000000,0.00,296.0,62.0,0,0,0,0.0
Status,,44,12,3,9,1602000000,0.00,274.0,56.0,0,0,0,0.0
Status,,44,13,3,18,1602000000,0.00,42.0,44.0,0,0,0,0.0
Status,,44,14,3,16,1602000000,0.00,192.0,33.0,0,0,0,0.0
Status,,44,15,3,10,1602000000,0.00,327.0,25.0,0,0,0,0.0
Status,,44,16,3,3,1602000000,0.00,92.0,21.0,0,0,0,0.0
Status,,44,17,3,2,1602000000,0.00,34.0,17.0,0,0,0,0.0
Status,,44,18,3,20,1602000000,0.00,257.0,16.0,0,0,0,0.0
Status,,44,19,3,17,1602000000,0.00,63.0,3.0,0,0,0,0.0
Status,,44,20,3,4,1602000000,0.00,135.0,2.0,0,0,0,0.0
Status,,44,21,5,43,1561098000,0.00,62.0,61.0,0,0,0,0.0
Status,,44,22,5,28,1561098000,0.00,277.0,54.0,0,0,0,0.0
Status,,44,23,5,37,1561098000,0.00,284.0,43.0,0,0,0,0.0
Status,,44,24,5,23,1561098000,0.00,209.0,41.0,0,0,0,0.0
Status,,44,25,5,13,1561098000,0.00,49.0,38.0,0,0,0,0.0
Status,,44,26,5,8,1561098000,0.00,38.0,31.0,0,0,0,0.0
Status,,44,27,5,11,1561098000,0.00,69.0,31.0,0,0,0,0.0
Status,,44,28,5,56,1561098000,0.00,49.0,29.0,0,0,0,0.0
Status,,44,29,5,42,1561098000,0.00,91.0,26.0,0,0,0,0.0
Status,,44,30,5,14,1561098000,0.00,121.0,22.0,0,0,0,0.0
Status,,44,31,5,5,1561098000,0.00,119.0,18.0,0,0,0,0.0
Status,,44,32,5,38,1561098000,0.00,32.0,18.0,0,0,0,0.0
Status,,44,33,5,21,1561098000,0.00,41.0,15.0,0,0,0,0.0
Status,,44,34,5,46,1561098000,0.00,321.0,14.0,0,0,0,0.0
Status,,44,35,5,27,1561098000,0.00,265.0,13.0,0,0,0,0.0
Status,,44,36,5,33,1561098000,0.00,144.0,12.0,0,0,0,0.0
Status,,44,37,5,15,1561098000,0.00,32.0,10.0,0,0,0,0.0
Status,,44,38,5,17,1561098000,0.00,32.0,10.0,0,0,0,0.0
Status,,44,39,5,18,1561098000,0.00,32.0,10.0,0,0,0,0.0
Status,,44,40,5,31,1561098000,0.00,32.0,10.0,0,0,0,0.0
Status,,44,41,5,34,1561098000,0.00,79.0,7.0,0,0,0,0.0
Status,,44,42,5,60,1561098000,0.00,101.0,5.0,0,0,0,0.0
Status,,44,43,5,2,1561098000,0.00,98.0,2.0,0,0,0,0.0
Status,,44,0,1,16,1575420000,0.00,213.0,69.0,0,0,0,0.0
Status,,44,1,1,27,1575420000,0.00,306.0,62.0,0,0,0,0.0
Status,,44,2,1,23,1575420000,0.00,91.0,52.0,0,0,0,0.0
Status,,44,3,1,10,1575420000,0.00,149.0,43.0,0,0,0,0.0
Status,,44,4,1,26,1575420000,0.00,180.0,39.0,0,0,0,0.0
Status,,44,5,1,18,1575420000,0.00,55.0,36.0,0,0,0,0.0
Status,,44,6,1,8,1575420000,0.00,294.0,29.0,0,0,0,0.0
Status,,44,7,1,2,1575420000,0.00,244.0,10.0,0,0,0,0.0
Status,,44,8,1,7,1575420000,0.00,318.0,10.0,0,0,0,0.0
Status,,44,9,1,15,1575420000,13.20,53.0,8.0,0,0,0,13.2
Status,,44,10,1,20,1575420000,0.00,32.0,2.0,0,0,0,0.0
Status,,44,11,3,19,1602000000,0.00,296.0,62.0,0,0,0,0.0
Status,,44,12,3,9,1602000000,0.00,274.0,56.0,0,0,0,0.0
Status,,44,13,3,18,1602000000,0.00,42.0,44.0,0,0,0,0.0
Status,,44,14,3,16,1602000000,0.00,192.0,33.0,0,0,0,0.0
Status,,44,15,3,10,1602000000,0.00,327.0,25.0,0,0,0,0.0
Status,,44,16,3,3,1602000000,0.00,92.0,21.0,0,0,0,0.0
Status,,44,17,3,2,1602000000,0.00,34.0,17.0,0,0,0,0.0
Status,,44,18,3,20,1602000000,0.00,257.0,16.0,0,0,0,0.0
Status,,44,19,3,17,1602000000,0.00,63.0,3.0,0,0,0,0.0
Status,,44,20,3,4,1602000000,0.00,135.0,2.0,0,0,0,0.0
Status,,44,21,5,43,1561098000,0.00,62.0,61.0,0,0,0,0.0
Status,,44,22,5,28,1561098000,0.00,277.0,54.0,0,0,0,0.0
Status,,44,23,5,37,1561098000,0.00,284.0,43.0,0,0,0,0.0
Status,,44,24,5,23,1561098000,0.00,209.0,41.0,0,0,0,0.0
Status,,44,25,5,13,1561098000,0.00,49.0,38.0,0,0,0,0.0
Status,,44,26,5,8,1561098000,0.00,38.0,31.0,0,0,0,0.0
Status,,44,27,5,11,1561098000,0.00,69.0,31.0,0,0,0,0.0
Status,,44,28,5,56,1561098000,0.00,49.0,29.0,0,0,0,0.0
Status,,44,29,5,42,1561098000,0.00,91.0,26.0,0,0,0,0.0
Status,,44,30,5,14,1561098000,0.00,121.0,22.0,0,0,0,0.0
Status,,44,31,5,5,1561098000,0.00,119.0,18.0,0,0,0,0.0
Status,,44,32,5,38,1561098000,0.00,32.0,18.0,0,0,0,0.0
Status,,44,33,5,21,1561098000,0.00,41.0,15.0,0,0,0,0.0
Status,,44,34,5,46,1561098000,0.00,321.0,14.0,0,0,0,0.0
Status,,44,35,5,27,1561098000,0.00,265.0,13.0,0,0,0,0.0
Status,,44,36,5,33,1561098000,0.00,144.0,12.0,0,0,0,0.0
Status,,44,37,5,15,1561098000,0.00,32.0,10.0,0,0,0,0.0
Status,,44,38,5,17,1561098000,0.00,32.0,10.0,0,0,0,0.0
Status,,44,39,5,18,1561098000,0.00,32.0,10.0,0,0,0,0.0
Status,,44,40,5,31,1561098000,0.00,32.0,10.0,0,0,0,0.0
Status,,44,41,5,34,1561098000,0.00,79.0,7.0,0,0,0,0.0
Status,,44,42,5,60,1561098000,0.00,101.0,5.0,0,0,0,0.0
Status,,44,43,5,2,1561098000,0.00,98.0,2.0,0,0,0,0.0
Status,,44,0,1,16,1575420000,0.00,213.0,69.0,0,0,0,0.0
Status,,44,1,1,27,1575420000,0.00,306.0,62.0,0,0,0,0.0
Status,,44,2,1,23,1575420000,0.00,91.0,52.0,0,0,0,0.0
Status,,44,3,1,10,1575420000,0.00,149.0,43.0,0,0,0,0.0
Status,,44,4,1,26,1575420000,0.00,180.0,39.0,0,0,0,0.0
Status,,44,5,1,18,1575420000,0.00,55.0,36.0,0,0,0,0.0
Status,,44,6,1,8,1575420000,0.00,294.0,29.0,0,0,0,0.0
Status,,44,7,1,2,1575420000,0.00,244.0,10.0,0,0,0,0.0
Status,,44,8,1,7,1575420000,0.00,318.0,10.0,0,0,0,0.0
Status,,44,9,1,15,1575420000,13.20,53.0,8.0,0,0,0,13.2
Status,,44,10,1,20,1575420000,0.00,32.0,2.0,0,0,0,0.0
Status,,44,11,3,19,1602000000,0.00,296.0,62.0,0,0,0,0.0
Status,,44,12,3,9,1602000000,0.00,274.0,56.0,0,0,0,0.0
Status,,44,13,3,18,1602000000,0.00,42.0,44.0,0,0,0,0.0
Status,,44,14,3,16,1602000000,0.00,192.0,33.0,0,0,0,0.0
Status,,44,15,3,10,1602000000,0.00,327.0,25.0,0,0,0,0.0
Status,,44,16,3,3,1602000000,0.00,92.0,21.0,0,0,0,0.0
Status,,44,17,3,2,1602000000,0.00,34.0,17.0,0,0,0,0.0
Status,,44,18,3,20,1602000000,0.00,257.0,16.0,0,0,0,0.0
Status,,44,19,3,17,1602000000,0.00,63.0,3.0,0,0,0,0.0
Status,,44,20,3,4,1602000000,0.00,135.0,2.0,0,0,0,0.0
Status,,44,21,5,43,1561098000,0.00,62.0,61.0,0,0,0,0.0
Status,,44,22,5,28,1561098000,0.00,277.0,54.0,0,0,0,0.0
Status,,44,23,5,37,1561098000,0.00,284.0,43.0,0,0,0,0.0
Status,,44,24,5,23,1561098000,0.00,209.0,41.0,0,0,0,0.0
Status,,44,25,5,13,1561098000,0.00,49.0,38.0,0,0,0,0.0
Status,,44,26,5,8,1561098000,0.00,38.0,31.0,0,0,0,0.0
Status,,44,27,5,11,1561098000,0.00,69.0,31.0,0,0,0,0.0
Status,,44,28,5,56,1561098000,0.00,49.0,29.0,0,0,0,0.0
Status,,44,29,5,42,1561098000,0.00,91.0,26.0,0,0,0,0.0
Status,,44,30,5,14,1561098000,0.00,121.0,22.0,0,0,0,0.0
Status,,44,31,5,5,1561098000,0.00,119.0,18.0,0,0,0,0.0
Status,,44,32,5,38,1561098000,0.00,32.0,18.0,0,0,0,0.0
Status,,44,33,5,21,1561098000,0.00,41.0,15.0,0,0,0,0.0
Status,,44,34,5,46,1561098000,0.00,321.0,14.0,0,0,0,0.0
Status,,44,35,5,27,1561098000,0.00,265.0,13.0,0,0,0,0.0
Status,,44,36,5,33,1561098000,0.00,144.0,12.0,0,0,0,0.0
Status,,44,37,5,15,1561098000,0.00,32.0,10.0,0,0,0,0.0
Status,,44,38,5,17,1561098000,0.00,32.0,10.0,0,0,0,0.0
Status,,44,39,5,18,1561098000,0.00,32.0,10.0,0,0,0,0.0
Status,,44,40,5,31,1561098000,0.00,32.0,10.0,0,0,0,0.0
Status,,44,41,5,34,1561098000,0.00,79.0,7.0,0,0,0,0.0
Status,,44,42,5,60,1561098000,0.00,101.0,5.0,0,0,0,0.0
Status,,44,43,5,2,1561098000,0.00,98.0,2.0,0,0,0,0.0
Fix,FLP,45.0643885000,7.6592329000,301.8000183105469,0.046869926,20.0,,1774356962895,1.5,,932141655000000,2.6001563,0,,,
Fix,NLP,45.0643885000,7.6592329000,301.8000183105469,,20.0,,1774356963562,,,932141655000000,2.6001563,0,,,
Status,,44,0,1,16,1575420000,0.00,213.0,69.0,0,0,0,0.0
Status,,44,1,1,27,1575420000,0.00,306.0,62.0,0,0,0,0.0
Status,,44,2,1,23,1575420000,0.00,91.0,52.0,0,0,0,0.0
Status,,44,3,1,10,1575420000,0.00,149.0,43.0,0,0,0,0.0
Status,,44,4,1,26,1575420000,0.00,180.0,39.0,0,0,0,0.0
Status,,44,5,1,18,1575420000,0.00,55.0,36.0,0,0,0,0.0
Status,,44,6,1,8,1575420000,0.00,294.0,29.0,0,0,0,0.0
Status,,44,7,1,2,1575420000,0.00,244.0,10.0,0,0,0,0.0
Status,,44,8,1,7,1575420000,0.00,318.0,10.0,0,0,0,0.0
Status,,44,9,1,15,1575420000,13.10,53.0,8.0,0,0,0,13.1
Status,,44,10,1,20,1575420000,0.00,32.0,2.0,0,0,0,0.0
Status,,44,11,3,19,1602000000,0.00,296.0,62.0,0,0,0,0.0
Status,,44,12,3,9,1602000000,0.00,274.0,56.0,0,0,0,0.0
Status,,44,13,3,18,1602000000,0.00,42.0,44.0,0,0,0,0.0
Status,,44,14,3,16,1602000000,0.00,192.0,33.0,0,0,0,0.0
Status,,44,15,3,10,1602000000,0.00,327.0,25.0,0,0,0,0.0
Status,,44,16,3,3,1602000000,0.00,92.0,21.0,0,0,0,0.0
Status,,44,17,3,2,1602000000,0.00,34.0,17.0,0,0,0,0.0
Status,,44,18,3,20,1602000000,0.00,257.0,16.0,0,0,0,0.0
Status,,44,19,3,17,1602000000,0.00,63.0,3.0,0,0,0,0.0
Status,,44,20,3,4,1602000000,0.00,135.0,2.0,0,0,0,0.0
Status,,44,21,5,43,1561098000,0.00,62.0,61.0,0,0,0,0.0
Status,,44,22,5,28,1561098000,0.00,277.0,54.0,0,0,0,0.0
Status,,44,23,5,37,1561098000,0.00,284.0,43.0,0,0,0,0.0
Status,,44,24,5,23,1561098000,0.00,209.0,41.0,0,0,0,0.0
Status,,44,25,5,13,1561098000,0.00,49.0,38.0,0,0,0,0.0
Status,,44,26,5,8,1561098000,0.00,38.0,31.0,0,0,0,0.0
Status,,44,27,5,11,1561098000,0.00,69.0,31.0,0,0,0,0.0
Status,,44,28,5,56,1561098000,0.00,49.0,29.0,0,0,0,0.0
Status,,44,29,5,42,1561098000,0.00,91.0,26.0,0,0,0,0.0
Status,,44,30,5,14,1561098000,0.00,121.0,22.0,0,0,0,0.0
Status,,44,31,5,5,1561098000,0.00,119.0,18.0,0,0,0,0.0
Status,,44,32,5,38,1561098000,0.00,32.0,18.0,0,0,0,0.0
Status,,44,33,5,21,1561098000,0.00,41.0,15.0,0,0,0,0.0
Status,,44,34,5,46,1561098000,0.00,321.0,14.0,0,0,0,0.0
Status,,44,35,5,27,1561098000,0.00,265.0,13.0,0,0,0,0.0
Status,,44,36,5,33,1561098000,0.00,144.0,12.0,0,0,0,0.0
Status,,44,37,5,15,1561098000,0.00,32.0,10.0,0,0,0,0.0
Status,,44,38,5,17,1561098000,0.00,32.0,10.0,0,0,0,0.0
Status,,44,39,5,18,1561098000,0.00,32.0,10.0,0,0,0,0.0
Status,,44,40,5,31,1561098000,0.00,32.0,10.0,0,0,0,0.0
Status,,44,41,5,34,1561098000,0.00,79.0,7.0,0,0,0,0.0
Status,,44,42,5,60,1561098000,0.00,101.0,5.0,0,0,0,0.0
Status,,44,43,5,2,1561098000,0.00,98.0,2.0,0,0,0,0.0
Status,,44,0,1,16,1575420000,0.00,213.0,69.0,0,0,0,0.0
Status,,44,1,1,27,1575420000,0.00,306.0,62.0,0,0,0,0.0
Status,,44,2,1,23,1575420000,0.00,91.0,52.0,0,0,0,0.0
Status,,44,3,1,10,1575420000,0.00,149.0,43.0,0,0,0,0.0
Status,,44,4,1,26,1575420000,0.00,180.0,39.0,0,0,0,0.0
Status,,44,5,1,18,1575420000,19.80,55.0,36.0,0,0,0,19.8
Status,,44,6,1,8,1575420000,0.00,294.0,29.0,0,0,0,0.0
Status,,44,7,1,2,1575420000,0.00,244.0,10.0,0,0,0,0.0
Status,,44,8,1,7,1575420000,0.00,318.0,10.0,0,0,0,0.0
Status,,44,9,1,15,1575420000,13.10,53.0,8.0,0,0,0,13.1
Status,,44,10,1,20,1575420000,0.00,32.0,2.0,0,0,0,0.0
Status,,44,11,3,19,1602000000,0.00,296.0,62.0,0,0,0,0.0
Status,,44,12,3,9,1602000000,0.00,274.0,56.0,0,0,0,0.0
Status,,44,13,3,18,1602000000,0.00,42.0,44.0,0,0,0,0.0
Status,,44,14,3,16,1602000000,0.00,192.0,33.0,0,0,0,0.0
Status,,44,15,3,10,1602000000,0.00,327.0,25.0,0,0,0,0.0
Status,,44,16,3,3,1602000000,0.00,92.0,21.0,0,0,0,0.0
Status,,44,17,3,2,1602000000,0.00,34.0,17.0,0,0,0,0.0
Status,,44,18,3,20,1602000000,0.00,257.0,16.0,0,0,0,0.0
Status,,44,19,3,17,1602000000,0.00,63.0,3.0,0,0,0,0.0
Status,,44,20,3,4,1602000000,0.00,135.0,2.0,0,0,0,0.0
Status,,44,21,5,43,1561098000,0.00,62.0,61.0,0,0,0,0.0
Status,,44,22,5,28,1561098000,0.00,277.0,54.0,0,0,0,0.0
Status,,44,23,5,37,1561098000,0.00,284.0,43.0,0,0,0,0.0
Status,,44,24,5,23,1561098000,0.00,209.0,41.0,0,0,0,0.0
Status,,44,25,5,13,1561098000,0.00,49.0,38.0,0,0,0,0.0
Status,,44,26,5,8,1561098000,0.00,38.0,31.0,0,0,0,0.0
Status,,44,27,5,11,1561098000,0.00,69.0,31.0,0,0,0,0.0
Status,,44,28,5,56,1561098000,0.00,49.0,29.0,0,0,0,0.0
Status,,44,29,5,42,1561098000,0.00,91.0,26.0,0,0,0,0.0
Status,,44,30,5,14,1561098000,0.00,121.0,22.0,0,0,0,0.0
Status,,44,31,5,5,1561098000,0.00,119.0,18.0,0,0,0,0.0
Status,,44,32,5,38,1561098000,0.00,32.0,18.0,0,0,0,0.0
Status,,44,33,5,21,1561098000,0.00,41.0,15.0,0,0,0,0.0
Status,,44,34,5,46,1561098000,0.00,321.0,14.0,0,0,0,0.0
Status,,44,35,5,27,1561098000,0.00,265.0,13.0,0,0,0,0.0
Status,,44,36,5,33,1561098000,0.00,144.0,12.0,0,0,0,0.0
Status,,44,37,5,15,1561098000,0.00,32.0,10.0,0,0,0,0.0
Status,,44,38,5,17,1561098000,0.00,32.0,10.0,0,0,0,0.0
Status,,44,39,5,18,1561098000,0.00,32.0,10.0,0,0,0,0.0
Status,,44,40,5,31,1561098000,0.00,32.0,10.0,0,0,0,0.0
Status,,44,41,5,34,1561098000,0.00,79.0,7.0,0,0,0,0.0
Status,,44,42,5,60,1561098000,0.00,101.0,5.0,0,0,0,0.0
Status,,44,43,5,2,1561098000,0.00,98.0,2.0,0,0,0,0.0
Status,,44,0,1,16,1575420000,0.00,213.0,69.0,0,0,0,0.0
Status,,44,1,1,27,1575420000,0.00,306.0,62.0,0,0,0,0.0
Status,,44,2,1,23,1575420000,0.00,91.0,52.0,0,0,0,0.0
Status,,44,3,1,10,1575420000,0.00,149.0,43.0,0,0,0,0.0
Status,,44,4,1,26,1575420000,0.00,180.0,39.0,0,0,0,0.0
Status,,44,5,1,18,1575420000,19.80,55.0,36.0,0,0,0,19.8
Status,,44,6,1,8,1575420000,0.00,294.0,29.0,0,0,0,0.0
Status,,44,7,1,2,1575420000,0.00,244.0,10.0,0,0,0,0.0
Status,,44,8,1,7,1575420000,18.50,318.0,10.0,0,0,0,18.5
Status,,44,9,1,15,1575420000,13.10,53.0,8.0,0,0,0,13.1
Status,,44,10,1,20,1575420000,0.00,32.0,2.0,0,0,0,0.0
Status,,44,11,3,19,1602000000,0.00,296.0,62.0,0,0,0,0.0
Status,,44,12,3,9,1602000000,0.00,274.0,56.0,0,0,0,0.0
Status,,44,13,3,18,1602000000,0.00,42.0,44.0,0,0,0,0.0
Status,,44,14,3,16,1602000000,0.00,192.0,33.0,0,0,0,0.0
Status,,44,15,3,10,1602000000,0.00,327.0,25.0,0,0,0,0.0
Status,,44,16,3,3,1602000000,0.00,92.0,21.0,0,0,0,0.0
Status,,44,17,3,2,1602000000,0.00,34.0,17.0,0,0,0,0.0
Status,,44,18,3,20,1602000000,0.00,257.0,16.0,0,0,0,0.0
Status,,44,19,3,17,1602000000,0.00,63.0,3.0,0,0,0,0.0
Status,,44,20,3,4,1602000000,0.00,135.0,2.0,0,0,0,0.0
Status,,44,21,5,43,1561098000,0.00,62.0,61.0,0,0,0,0.0
Status,,44,22,5,28,1561098000,0.00,277.0,54.0,0,0,0,0.0
Status,,44,23,5,37,1561098000,0.00,284.0,43.0,0,0,0,0.0
Status,,44,24,5,23,1561098000,0.00,209.0,41.0,0,0,0,0.0
Status,,44,25,5,13,1561098000,0.00,49.0,38.0,0,0,0,0.0
Status,,44,26,5,8,1561098000,0.00,38.0,31.0,0,0,0,0.0
Status,,44,27,5,11,1561098000,0.00,69.0,31.0,0,0,0,0.0
Status,,44,28,5,56,1561098000,0.00,49.0,29.0,0,0,0,0.0
Status,,44,29,5,42,1561098000,0.00,91.0,26.0,0,0,0,0.0
Status,,44,30,5,14,1561098000,0.00,121.0,22.0,0,0,0,0.0
Status,,44,31,5,5,1561098000,0.00,119.0,18.0,0,0,0,0.0
Status,,44,32,5,38,1561098000,0.00,32.0,18.0,0,0,0,0.0
Status,,44,33,5,21,1561098000,0.00,41.0,15.0,0,0,0,0.0
Status,,44,34,5,46,1561098000,0.00,321.0,14.0,0,0,0,0.0
Status,,44,35,5,27,1561098000,0.00,265.0,13.0,0,0,0,0.0
Status,,44,36,5,33,1561098000,0.00,144.0,12.0,0,0,0,0.0
Status,,44,37,5,15,1561098000,0.00,32.0,10.0,0,0,0,0.0
Status,,44,38,5,17,1561098000,0.00,32.0,10.0,0,0,0,0.0
Status,,44,39,5,18,1561098000,0.00,32.0,10.0,0,0,0,0.0
Status,,44,40,5,31,1561098000,0.00,32.0,10.0,0,0,0,0.0
Status,,44,41,5,34,1561098000,0.00,79.0,7.0,0,0,0,0.0
Status,,44,42,5,60,1561098000,0.00,101.0,5.0,0,0,0,0.0
Status,,44,43,5,2,1561098000,0.00,98.0,2.0,0,0,0,0.0
Status,,44,0,1,16,1575420000,0.00,213.0,69.0,0,0,0,0.0
Status,,44,1,1,27,1575420000,0.00,306.0,62.0,0,0,0,0.0
Status,,44,2,1,23,1575420000,0.00,91.0,52.0,0,0,0,0.0
Status,,44,3,1,10,1575420000,0.00,149.0,43.0,0,0,0,0.0
Status,,44,4,1,26,1575420000,0.00,180.0,39.0,0,0,0,0.0
Status,,44,5,1,18,1575420000,19.80,55.0,36.0,0,0,0,19.8
Status,,44,6,1,8,1575420000,0.00,294.0,29.0,0,0,0,0.0
Status,,44,7,1,2,1575420000,0.00,244.0,10.0,0,0,0,0.0
Status,,44,8,1,7,1575420000,18.50,318.0,10.0,0,0,0,18.5
Status,,44,9,1,15,1575420000,13.10,53.0,8.0,0,0,0,13.1
Status,,44,10,1,20,1575420000,0.00,32.0,2.0,0,0,0,0.0
Status,,44,11,3,19,1602000000,0.00,296.0,62.0,0,0,0,0.0
Status,,44,12,3,9,1602000000,0.00,274.0,56.0,0,0,0,0.0
Status,,44,13,3,18,1602000000,0.00,42.0,44.0,0,0,0,0.0
Status,,44,14,3,16,1602000000,0.00,192.0,33.0,0,0,0,0.0
Status,,44,15,3,10,1602000000,0.00,327.0,25.0,0,0,0,0.0
Status,,44,16,3,3,1602000000,0.00,92.0,21.0,0,0,0,0.0
Status,,44,17,3,2,1602000000,0.00,34.0,17.0,0,0,0,0.0
Status,,44,18,3,20,1602000000,0.00,257.0,16.0,0,0,0,0.0
Status,,44,19,3,17,1602000000,0.00,63.0,3.0,0,0,0,0.0
Status,,44,20,3,4,1602000000,0.00,135.0,2.0,0,0,0,0.0
Status,,44,21,5,43,1561098000,0.00,62.0,61.0,0,0,0,0.0
Status,,44,22,5,28,1561098000,0.00,277.0,54.0,0,0,0,0.0
Status,,44,23,5,37,1561098000,0.00,284.0,43.0,0,0,0,0.0
Status,,44,24,5,23,1561098000,0.00,209.0,41.0,0,0,0,0.0
Status,,44,25,5,13,1561098000,0.00,49.0,38.0,0,0,0,0.0
Status,,44,26,5,8,1561098000,0.00,38.0,31.0,0,0,0,0.0
Status,,44,27,5,11,1561098000,0.00,69.0,31.0,0,0,0,0.0
Status,,44,28,5,56,1561098000,0.00,49.0,29.0,0,0,0,0.0
Status,,44,29,5,42,1561098000,0.00,91.0,26.0,0,0,0,0.0
Status,,44,30,5,14,1561098000,0.00,121.0,22.0,0,0,0,0.0
Status,,44,31,5,5,1561098000,0.00,119.0,18.0,0,0,0,0.0
Status,,44,32,5,38,1561098000,0.00,32.0,18.0,0,0,0,0.0
Status,,44,33,5,21,1561098000,0.00,41.0,15.0,0,0,0,0.0
Status,,44,34,5,46,1561098000,0.00,321.0,14.0,0,0,0,0.0
Status,,44,35,5,27,1561098000,0.00,265.0,13.0,0,0,0,0.0
Status,,44,36,5,33,1561098000,0.00,144.0,12.0,0,0,0,0.0
Status,,44,37,5,15,1561098000,0.00,32.0,10.0,0,0,0,0.0
Status,,44,38,5,17,1561098000,0.00,32.0,10.0,0,0,0,0.0
Status,,44,39,5,18,1561098000,0.00,32.0,10.0,0,0,0,0.0
Status,,44,40,5,31,1561098000,0.00,32.0,10.0,0,0,0,0.0
Status,,44,41,5,34,1561098000,0.00,79.0,7.0,0,0,0,0.0
Status,,44,42,5,60,1561098000,0.00,101.0,5.0,0,0,0,0.0
Status,,44,43,5,2,1561098000,0.00,98.0,2.0,0,0,0,0.0
Status,,44,0,1,16,1575420000,0.00,213.0,69.0,0,0,0,0.0
Status,,44,1,1,27,1575420000,0.00,306.0,62.0,0,0,0,0.0
Status,,44,2,1,23,1575420000,0.00,91.0,52.0,0,0,0,0.0
Status,,44,3,1,10,1575420000,0.00,149.0,43.0,0,0,0,0.0
Status,,44,4,1,26,1575420000,0.00,180.0,39.0,0,0,0,0.0
Status,,44,5,1,18,1575420000,19.70,55.0,36.0,0,0,0,19.7
Status,,44,6,1,8,1575420000,0.00,294.0,29.0,0,0,0,0.0
Status,,44,7,1,2,1575420000,0.00,244.0,10.0,0,0,0,0.0
Status,,44,8,1,7,1575420000,19.60,318.0,10.0,0,0,0,19.6
Status,,44,9,1,15,1575420000,13.20,53.0,8.0,0,0,0,13.2
Status,,44,10,1,20,1575420000,0.00,32.0,2.0,0,0,0,0.0
Status,,44,11,3,19,1602000000,0.00,296.0,62.0,0,0,0,0.0
Status,,44,12,3,9,1602000000,0.00,274.0,56.0,0,0,0,0.0
Status,,44,13,3,18,1602000000,0.00,42.0,44.0,0,0,0,0.0
Status,,44,14,3,16,1602000000,0.00,192.0,33.0,0,0,0,0.0
Status,,44,15,3,10,1602000000,0.00,327.0,25.0,0,0,0,0.0
Status,,44,16,3,3,1602000000,0.00,92.0,21.0,0,0,0,0.0
Status,,44,17,3,2,1602000000,0.00,34.0,17.0,0,0,0,0.0
Status,,44,18,3,20,1602000000,0.00,257.0,16.0,0,0,0,0.0
Status,,44,19,3,17,1602000000,0.00,63.0,3.0,0,0,0,0.0
Status,,44,20,3,4,1602000000,0.00,135.0,2.0,0,0,0,0.0
Status,,44,21,5,43,1561098000,0.00,62.0,61.0,0,0,0,0.0
Status,,44,22,5,28,1561098000,0.00,277.0,54.0,0,0,0,0.0
Status,,44,23,5,37,1561098000,0.00,284.0,43.0,0,0,0,0.0
Status,,44,24,5,23,1561098000,0.00,209.0,41.0,0,0,0,0.0
Status,,44,25,5,13,1561098000,0.00,49.0,38.0,0,0,0,0.0
Status,,44,26,5,8,1561098000,0.00,38.0,31.0,0,0,0,0.0
Status,,44,27,5,11,1561098000,0.00,69.0,31.0,0,0,0,0.0
Status,,44,28,5,56,1561098000,0.00,49.0,29.0,0,0,0,0.0
Status,,44,29,5,42,1561098000,0.00,91.0,26.0,0,0,0,0.0
Status,,44,30,5,14,1561098000,0.00,121.0,22.0,0,0,0,0.0
Status,,44,31,5,5,1561098000,0.00,119.0,18.0,0,0,0,0.0
Status,,44,32,5,38,1561098000,0.00,32.0,18.0,0,0,0,0.0
Status,,44,33,5,21,1561098000,0.00,41.0,15.0,0,0,0,0.0
Status,,44,34,5,46,1561098000,0.00,321.0,14.0,0,0,0,0.0
Status,,44,35,5,27,1561098000,0.00,265.0,13.0,0,0,0,0.0
Status,,44,36,5,33,1561098000,0.00,144.0,12.0,0,0,0,0.0
Status,,44,37,5,15,1561098000,0.00,32.0,10.0,0,0,0,0.0
Status,,44,38,5,17,1561098000,0.00,32.0,10.0,0,0,0,0.0
Status,,44,39,5,18,1561098000,0.00,32.0,10.0,0,0,0,0.0
Status,,44,40,5,31,1561098000,0.00,32.0,10.0,0,0,0,0.0
Status,,44,41,5,34,1561098000,0.00,79.0,7.0,0,0,0,0.0
Status,,44,42,5,60,1561098000,0.00,101.0,5.0,0,0,0,0.0
Status,,44,43,5,2,1561098000,0.00,98.0,2.0,0,0,0,0.0
Status,,44,0,1,16,1575420000,0.00,213.0,69.0,0,0,0,0.0
Status,,44,1,1,27,1575420000,0.00,306.0,62.0,0,0,0,0.0
Status,,44,2,1,23,1575420000,0.00,91.0,52.0,0,0,0,0.0
Status,,44,3,1,10,1575420000,0.00,149.0,43.0,0,0,0,0.0
Status,,44,4,1,26,1575420000,0.00,180.0,39.0,0,0,0,0.0
Status,,44,5,1,18,1575420000,19.80,55.0,36.0,0,0,0,19.8
Status,,44,6,1,8,1575420000,0.00,294.0,29.0,0,0,0,0.0
Status,,44,7,1,2,1575420000,0.00,244.0,10.0,0,0,0,0.0
Status,,44,8,1,7,1575420000,18.00,318.0,10.0,0,0,0,18.0
Status,,44,9,1,15,1575420000,13.30,53.0,8.0,0,0,0,13.3
Status,,44,10,1,20,1575420000,0.00,32.0,2.0,0,0,0,0.0
Status,,44,11,3,19,1602000000,0.00,296.0,62.0,0,0,0,0.0
Status,,44,12,3,9,1602000000,0.00,274.0,56.0,0,0,0,0.0
Status,,44,13,3,18,1602000000,0.00,42.0,44.0,0,0,0,0.0
Status,,44,14,3,16,1602000000,0.00,192.0,33.0,0,0,0,0.0
Status,,44,15,3,10,1602000000,0.00,327.0,25.0,0,0,0,0.0
Status,,44,16,3,3,1602000000,0.00,92.0,21.0,0,0,0,0.0
Status,,44,17,3,2,1602000000,0.00,34.0,17.0,0,0,0,0.0
Status,,44,18,3,20,1602000000,0.00,257.0,16.0,0,0,0,0.0
Status,,44,19,3,17,1602000000,0.00,63.0,3.0,0,0,0,0.0
Status,,44,20,3,4,1602000000,0.00,135.0,2.0,0,0,0,0.0
Status,,44,21,5,43,1561098000,0.00,62.0,61.0,0,0,0,0.0
Status,,44,22,5,28,1561098000,0.00,277.0,54.0,0,0,0,0.0
Status,,44,23,5,37,1561098000,0.00,284.0,43.0,0,0,0,0.0
Status,,44,24,5,23,1561098000,0.00,209.0,41.0,0,0,0,0.0
Status,,44,25,5,13,1561098000,0.00,49.0,38.0,0,0,0,0.0
Status,,44,26,5,8,1561098000,0.00,38.0,31.0,0,0,0,0.0
Status,,44,27,5,11,1561098000,0.00,69.0,31.0,0,0,0,0.0
Status,,44,28,5,56,1561098000,0.00,49.0,29.0,0,0,0,0.0
Status,,44,29,5,42,1561098000,0.00,91.0,26.0,0,0,0,0.0
Status,,44,30,5,14,1561098000,0.00,121.0,22.0,0,0,0,0.0
Status,,44,31,5,5,1561098000,0.00,119.0,18.0,0,0,0,0.0
Status,,44,32,5,38,1561098000,0.00,32.0,18.0,0,0,0,0.0
Status,,44,33,5,21,1561098000,0.00,41.0,15.0,0,0,0,0.0
Status,,44,34,5,46,1561098000,0.00,321.0,14.0,0,0,0,0.0
Status,,44,35,5,27,1561098000,0.00,265.0,13.0,0,0,0,0.0
Status,,44,36,5,33,1561098000,0.00,144.0,12.0,0,0,0,0.0
Status,,44,37,5,15,1561098000,0.00,32.0,10.0,0,0,0,0.0
Status,,44,38,5,17,1561098000,0.00,32.0,10.0,0,0,0,0.0
Status,,44,39,5,18,1561098000,0.00,32.0,10.0,0,0,0,0.0
Status,,44,40,5,31,1561098000,0.00,32.0,10.0,0,0,0,0.0
Status,,44,41,5,34,1561098000,0.00,79.0,7.0,0,0,0,0.0
Status,,44,42,5,60,1561098000,0.00,101.0,5.0,0,0,0,0.0
Status,,44,43,5,2,1561098000,0.00,98.0,2.0,0,0,0,0.0
Status,,44,0,1,16,1575420000,0.00,213.0,69.0,0,0,0,0.0
Status,,44,1,1,27,1575420000,0.00,306.0,62.0,0,0,0,0.0
Status,,44,2,1,23,1575420000,0.00,91.0,52.0,0,0,0,0.0
Status,,44,3,1,10,1575420000,0.00,149.0,43.0,0,0,0,0.0
Status,,44,4,1,26,1575420000,0.00,180.0,39.0,0,0,0,0.0
Status,,44,5,1,18,1575420000,19.80,55.0,36.0,0,0,0,19.8
Status,,44,6,1,8,1575420000,0.00,294.0,29.0,0,0,0,0.0
Status,,44,7,1,2,1575420000,0.00,244.0,10.0,0,0,0,0.0
Status,,44,8,1,7,1575420000,18.00,318.0,10.0,0,0,0,18.0
Status,,44,9,1,15,1575420000,13.30,53.0,8.0,0,0,0,13.3
Status,,44,10,1,20,1575420000,0.00,32.0,2.0,0,0,0,0.0
Status,,44,11,3,19,1602000000,0.00,296.0,62.0,0,0,0,0.0
Status,,44,12,3,9,1602000000,0.00,274.0,56.0,0,0,0,0.0
Status,,44,13,3,18,1602000000,0.00,42.0,44.0,0,0,0,0.0
Status,,44,14,3,16,1602000000,0.00,192.0,33.0,0,0,0,0.0
Status,,44,15,3,10,1602000000,0.00,327.0,25.0,0,0,0,0.0
Status,,44,16,3,3,1602000000,19.40,92.0,21.0,0,0,0,19.4
Status,,44,17,3,2,1602000000,0.00,34.0,17.0,0,0,0,0.0
Status,,44,18,3,20,1602000000,0.00,257.0,16.0,0,0,0,0.0
Status,,44,19,3,17,1602000000,0.00,63.0,3.0,0,0,0,0.0
Status,,44,20,3,4,1602000000,0.00,135.0,2.0,0,0,0,0.0
Status,,44,21,5,43,1561098000,0.00,62.0,61.0,0,0,0,0.0
Status,,44,22,5,28,1561098000,0.00,277.0,54.0,0,0,0,0.0
Status,,44,23,5,37,1561098000,0.00,284.0,43.0,0,0,0,0.0
Status,,44,24,5,23,1561098000,0.00,209.0,41.0,0,0,0,0.0
Status,,44,25,5,13,1561098000,0.00,49.0,38.0,0,0,0,0.0
Status,,44,26,5,8,1561098000,0.00,38.0,31.0,0,0,0,0.0
Status,,44,27,5,11,1561098000,0.00,69.0,31.0,0,0,0,0.0
Status,,44,28,5,56,1561098000,0.00,49.0,29.0,0,0,0,0.0
Status,,44,29,5,42,1561098000,0.00,91.0,26.0,0,0,0,0.0
Status,,44,30,5,14,1561098000,0.00,121.0,22.0,0,0,0,0.0
Status,,44,31,5,5,1561098000,0.00,119.0,18.0,0,0,0,0.0
Status,,44,32,5,38,1561098000,0.00,32.0,18.0,0,0,0,0.0
Status,,44,33,5,21,1561098000,0.00,41.0,15.0,0,0,0,0.0
Status,,44,34,5,46,1561098000,0.00,321.0,14.0,0,0,0,0.0
Status,,44,35,5,27,1561098000,0.00,265.0,13.0,0,0,0,0.0
Status,,44,36,5,33,1561098000,0.00,144.0,12.0,0,0,0,0.0
Status,,44,37,5,15,1561098000,0.00,32.0,10.0,0,0,0,0.0
Status,,44,38,5,17,1561098000,0.00,32.0,10.0,0,0,0,0.0
Status,,44,39,5,18,1561098000,0.00,32.0,10.0,0,0,0,0.0
Status,,44,40,5,31,1561098000,0.00,32.0,10.0,0,0,0,0.0
Status,,44,41,5,34,1561098000,0.00,79.0,7.0,0,0,0,0.0
Status,,44,42,5,60,1561098000,0.00,101.0,5.0,0,0,0,0.0
Status,,44,43,5,2,1561098000,0.00,98.0,2.0,0,0,0,0.0
Fix,FLP,45.0643902000,7.6592370000,301.8000183105469,0.048141893,20.0,,1774356970229,1.5,,932148989000000,2.24794,0,,,
Fix,NLP,45.0643902000,7.6592371000,301.8000183105469,,20.0,,1774356970896,,,932148989000000,2.24794,0,,,
Status,,45,0,1,16,1575420000,0.00,213.0,69.0,0,0,0,0.0
Status,,45,1,1,27,1575420000,0.00,306.0,62.0,0,0,0,0.0
Status,,45,2,1,23,1575420000,18.80,91.0,52.0,0,0,0,18.8
Status,,45,3,2,127,1575420000,0.00,1.0,45.0,0,0,0,0.0
Status,,45,4,1,10,1575420000,0.00,149.0,43.0,0,0,0,0.0
Status,,45,5,1,26,1575420000,0.00,180.0,39.0,0,0,0,0.0
Status,,45,6,1,18,1575420000,19.80,55.0,36.0,0,0,0,19.8
Status,,45,7,1,8,1575420000,0.00,294.0,29.0,0,0,0,0.0
Status,,45,8,1,2,1575420000,0.00,244.0,10.0,0,0,0,0.0
Status,,45,9,1,7,1575420000,17.80,318.0,10.0,0,0,0,17.8
Status,,45,10,1,15,1575420000,13.40,53.0,8.0,0,0,0,13.4
Status,,45,11,1,20,1575420000,0.00,32.0,2.0,0,0,0,0.0
Status,,45,12,3,19,1602000000,0.00,296.0,62.0,0,0,0,0.0
Status,,45,13,3,9,1602000000,0.00,274.0,56.0,0,0,0,0.0
Status,,45,14,3,18,1602000000,0.00,42.0,44.0,0,0,0,0.0
Status,,45,15,3,16,1602000000,0.00,192.0,33.0,0,0,0,0.0
Status,,45,16,3,10,1602000000,0.00,327.0,25.0,0,0,0,0.0
Status,,45,17,3,3,1602000000,19.70,92.0,21.0,0,0,0,19.7
Status,,45,18,3,2,1602000000,0.00,34.0,17.0,0,0,0,0.0
Status,,45,19,3,20,1602000000,0.00,257.0,16.0,0,0,0,0.0
Status,,45,20,3,17,1602000000,0.00,63.0,3.0,0,0,0,0.0
Status,,45,21,3,4,1602000000,0.00,135.0,2.0,0,0,0,0.0
Status,,45,22,5,43,1561098000,0.00,62.0,61.0,0,0,0,0.0
Status,,45,23,5,28,1561098000,0.00,277.0,54.0,0,0,0,0.0
Status,,45,24,5,37,1561098000,0.00,284.0,43.0,0,0,0,0.0
Status,,45,25,5,23,1561098000,0.00,209.0,41.0,0,0,0,0.0
Status,,45,26,5,13,1561098000,0.00,49.0,38.0,0,0,0,0.0
Status,,45,27,5,8,1561098000,0.00,38.0,31.0,0,0,0,0.0
Status,,45,28,5,11,1561098000,0.00,69.0,31.0,0,0,0,0.0
Status,,45,29,5,56,1561098000,0.00,49.0,29.0,0,0,0,0.0
Status,,45,30,5,42,1561098000,0.00,91.0,26.0,0,0,0,0.0
Status,,45,31,5,14,1561098000,0.00,121.0,22.0,0,0,0,0.0
Status,,45,32,5,5,1561098000,0.00,119.0,18.0,0,0,0,0.0
Status,,45,33,5,38,1561098000,0.00,32.0,18.0,0,0,0,0.0
Status,,45,34,5,21,1561098000,0.00,41.0,15.0,0,0,0,0.0
Status,,45,35,5,46,1561098000,0.00,321.0,14.0,0,0,0,0.0
Status,,45,36,5,27,1561098000,0.00,265.0,13.0,0,0,0,0.0
Status,,45,37,5,33,1561098000,0.00,144.0,12.0,0,0,0,0.0
Status,,45,38,5,15,1561098000,0.00,32.0,10.0,0,0,0,0.0
Status,,45,39,5,17,1561098000,0.00,32.0,10.0,0,0,0,0.0
Status,,45,40,5,18,1561098000,0.00,32.0,10.0,0,0,0,0.0
Status,,45,41,5,31,1561098000,0.00,32.0,10.0,0,0,0,0.0
Status,,45,42,5,34,1561098000,0.00,79.0,7.0,0,0,0,0.0
Status,,45,43,5,60,1561098000,0.00,101.0,5.0,0,0,0,0.0
Status,,45,44,5,2,1561098000,0.00,98.0,2.0,0,0,0,0.0
Raw,1774356970949,45014000000,18,707029.7007771956,-1458392143935000064,0.0,332.62314679911515,-4501.063256837254,0.0,0,15,0.0,47,219388867838134,1797,13.387999534606934,-1466.898939718831,0.14999,16,0.0,0.0,1575420000,,,,0,0.0,1,6.0,13.387999534606934,0.0,0.0,0.0,66.7128,C,,0,-5916361.6690351255,18671462.75279085,17371970.042113293,-1085.6250034105726,-2063.20375027734,1797.5091738929855,119022.44717960048,-0.00046555197332054377,0.000000021420419216156006,0.000000007450580596923828,-0.00000011920928955078125,0.0,122880.0,0.0,-262144.0,196608.0
Raw,1774356970949,45014000000,18,707029.7007771956,-1458392143935000064,0.0,332.62314679911515,-4501.063256837254,0.0,0,7,0.0,47,219388865220857,797,17.816999435424805,-1512.7351848194778,0.14999,16,0.0,0.0,1575420000,,,,0,0.0,1,6.0,17.816999435424805,0.0,0.0,0.0,66.7128,C,,0,-3219014.9194930494,-17054038.02698476,20618052.144329216,1911.5395237666798,-1608.6393939211534,-1104.2415072139072,-49351.143891457774,0.00005348843114916235,0.000000021420419216156006,0.000000007450580596923828,-0.00000011920928955078125,0.0,122880.0,0.0,-262144.0,196608.0
Raw,1774356970949,45014000000,18,707029.7007771956,-1458392143935000064,0.0,332.62314679911515,-4501.063256837254,0.0,0,18,0.0,47,219388874376751,487,19.83799934387207,-838.1150317807264,0.14999,16,0.0,0.0,1575420000,,,,0,0.0,1,6.0,19.83799934387207,0.0,0.0,0.0,66.7128,C,,0,4434032.673143258,15394356.255198548,21185396.307193954,-2057.0614557549707,1720.4816257953207,-847.7426186377577,-118126.36341770722,0.002832607409800403,0.000000021420419216156006,0.000000007450580596923828,-0.00000011920928955078125,0.0,122880.0,0.0,-262144.0,196608.0
Raw,1774356970949,45014000000,18,707029.7007771956,-1458392143935000064,0.0,332.62314679911515,-4501.063256837254,0.0,0,3,0.0,51,72163,487,0.0,-1853.6724046099841,0.14999,16,0.0,0.0,1604812500,,,,0,0.0,3,6.0,20.0,0.0,0.0,-9.173779531587778,66.7128,C,,0,,,,,,,,,0.000000021420419216156006,0.000000007450580596923828,-0.00000011920928955078125,0.0,122880.0,0.0,-262144.0,196608.0
Raw,1774356970949,45014000000,18,707029.7007771956,-1458392143935000064,0.0,332.62314679911515,-4501.063256837254,0.0,0,23,0.0,47,219388878332040,487,18.788000106811523,-1391.0856803088316,0.14999,16,0.0,0.0,1575420000,,,,0,0.0,1,6.0,18.788000106811523,0.0,0.0,0.0,66.7128,C,,0,14504928.909692287,15389251.183021598,16311883.404596752,-1991.4914274703358,-458.9688037832707,2188.218393924572,188234.6084790028,0.0019145771802868694,0.000000021420419216156006,0.000000007450580596923828,-0.00000011920928955078125,0.0,122880.0,0.0,-262144.0,196608.0
Status,,52,0,1,16,1575420000,0.00,213.0,69.0,0,0,0,0.0
Status,,52,1,1,27,1575420000,0.00,306.0,62.0,0,0,0,0.0
Status,,52,2,1,23,1575420000,19.40,91.0,52.0,1,0,0,19.4
Status,,52,3,2,127,1575420000,0.00,1.0,45.0,0,0,0,0.0
Status,,52,4,1,10,1575420000,0.00,149.0,43.0,0,0,0,0.0
